{"retCode":1,"updated_at":"2025-11-25 15:33:30","retVal":[{"scity":"桃園市","scityen":"Taoyuan City","sna":"YouBike2.0_君臨公園","sarea":"八德區","ar":"忠勇六街1號對面人行道","snaen":"YouBike2.0_Junlin Park","sareaen":"Bade Dist.","aren":"No.1, Zhongyong 6th St.(opposite)","sno":"500301001","tot":"44","sbi":"3","mday":"20251125143402","lat":"24.964524","lng":"121.305469","bemp":"40","act":1,"sbi_detail":{"yb2":"3","eyb":"0"}},{"scity":"桃園市","scityen":"Taoyuan City","sna":"YouBike2.0_大和公園","sarea":"八德區","ar":"銀和街31號對面公園","snaen":"YouBike2.0_Dahe Park","sareaen":"Bade Dist.","aren":"No. 31, Yinhe St.(Opposite)","sno":"500301002","tot":"36","sbi":"5","mday":"20251125152302","lat":"24.955717","lng":"121.296538","bemp":"31","act":1,"sbi_detail":{"yb2":"4","eyb":"1"}},{"scity":"桃園市","scityen":"Taoyuan City","sna":"YouBike2.0_思源公園","sarea":"八德區","ar":"思源街122號(對面公園綠帶)","snaen":"YouBike2.0_Siyuan Park","sareaen":"Bade Dist.","aren":"No.122, Siyuan St.(opposite)","sno":"500301003","tot":"32","sbi":"3","mday":"20251125151302","lat":"24.97352","lng":"121.29876","bemp":"25","act":1,"sbi_detail":{"yb2":"3","eyb":"0"}},{"scity":"桃園市","scityen":"Taoyuan City","sna":"YouBike2.0_廣豐公園","sarea":"八德區","ar":"公園路/廣豐二街東北側人行道","snaen":"YouBike2.0_Guangfeng Park","sareaen":"Bade Dist.","aren":"Gongyuan Rd. & Guangfeng 2nd St.(Northeast)","sno":"500301004","tot":"40","sbi":"1","mday":"20251125142902","lat":"24.96602","lng":"121.29791","bemp":"38","act":1,"sbi_detail":{"yb2":"1","eyb":"0"}},{"scity":"桃園市","scityen":"Taoyuan City","sna":"YouBike2.0_大湳公園","sarea":"八德區","ar":"福國北街100-1號(對面公園綠帶)","snaen":"YouBike2.0_Danan Park","sareaen":"Bade Dist.","aren":"No. 100-1, Fuguo N. St.(Opposite)","sno":"500301005","tot":"42","sbi":"0","mday":"20251125150218","lat":"24.96178","lng":"121.29545","bemp":"39","act":1,"sbi_detail":{"yb2":"0","eyb":"0"}},{"scity":"桃園市","scityen":"Taoyuan City","sna":"YouBike2.0_重慶公園","sarea":"八德區","ar":"重慶街179號對面公園旁人行道","snaen":"YouBike2.0_Chongqing Park","sareaen":"Bade Dist.","aren":"No. 179, Chongqing St.(Opposite)","sno":"500301006","tot":"30","sbi":"5","mday":"20251125152802","lat":"24.95598","lng":"121.30407","bemp":"25","act":1,"sbi_detail":{"yb2":"3","eyb":"2"}},{"scity":"桃園市","scityen":"Taoyuan City","sna":"YouBike2.0_介壽路(國2橋下)","sarea":"八德區","ar":"介壽路一段178號旁國道二號橋下空間","snaen":"YouBike2.0_Jieshou Rd.(Under the National Freeway No.2 Viaduct)","sareaen":"Bade Dist.","aren":"No. 178, Sec. 1, Jieshou Rd.","sno":"500301007","tot":"25","sbi":"2","mday":"20251125151802","lat":"24.97422","lng":"121.30254","bemp":"22","act":1,"sbi_detail":{"yb2":"2","eyb":"0"}},{"scity":"桃園市","scityen":"Taoyuan City","sna":"YouBike2.0_和盛公園","sarea":"八德區","ar":"大和路102號對面公園側人行道","snaen":"YouBike2.0_Hesheng Park","sareaen":"Bade Dist.","aren":"No. 102, Dahe Rd.(Opposite)","sno":"500301008","tot":"34","sbi":"3","mday":"20251125152602","lat":"24.95429","lng":"121.29640","bemp":"30","act":1,"sbi_detail":{"yb2":"3","eyb":"0"}},{"scity":"桃園市","scityen":"Taoyuan City","sna":"YouBike2.0_同福公園","sarea":"八德區","ar":"和義街50號對面人行道","snaen":"YouBike2.0_Tongfu Park","sareaen":"Bade Dist.","aren":"No.50, Heyi St.(opposite)","sno":"500301009","tot":"32","sbi":"8","mday":"20251125073004","lat":"24.95926","lng":"121.30838","bemp":"24","act":1,"sbi_detail":{"yb2":"2","eyb":"6"}},{"scity":"桃園市","scityen":"Taoyuan City","sna":"YouBike2.0_大勇國小","sarea":"八德區","ar":"忠勇街373號對面人行道","snaen":"YouBike2.0_Dayong Elementary School","sareaen":"Bade Dist.","aren":"No.373, Zhongyong St.(opposite)","sno":"500301010","tot":"44","sbi":"2","mday":"20251125143802","lat":"24.96862","lng":"121.30346","bemp":"42","act":1,"sbi_detail":{"yb2":"2","eyb":"0"}},{"scity":"桃園市","scityen":"Taoyuan City","sna":"YouBike2.0_大明公園","sarea":"八德區","ar":"興隆街/興隆街3巷","snaen":"YouBike2.0_Daming Park","sareaen":"Bade Dist.","aren":"Ln. 3, Xinglong St. Intersection","sno":"500301011","tot":"32","sbi":"3","mday":"20251125144202","lat":"24.96875","lng":"121.32744","bemp":"29","act":1,"sbi_detail":{"yb2":"3","eyb":"0"}},{"scity":"桃園市","scityen":"Taoyuan City","sna":"YouBike2.0_元聖宮","sarea":"八德區","ar":"東泰街2號","snaen":"YouBike2.0_Yuansheng Temple","sareaen":"Bade Dist.","aren":"No. 2, Dongtai St.","sno":"500301012","tot":"34","sbi":"19","mday":"20251125151302","lat":"24.96384","lng":"121.27843","bemp":"15","act":1,"sbi_detail":{"yb2":"19","eyb":"0"}},{"scity":"桃園市","scityen":"Taoyuan City","sna":"YouBike2.0_八德霖園公園","sarea":"八德區","ar":"介壽路一段16巷73號旁公園人行道","snaen":"YouBike2.0_Bade Linyuan Park","sareaen":"Bade Dist.","aren":"No.73, Ln. 16, Sec. 1, Jieshou Rd.(opposite)","sno":"500301013","tot":"34","sbi":"3","mday":"20251125152602","lat":"24.97847","lng":"121.30076","bemp":"31","act":1,"sbi_detail":{"yb2":"2","eyb":"1"}},{"scity":"桃園市","scityen":"Taoyuan City","sna":"YouBike2.0_建德公園","sarea":"八德區","ar":"長興路61號對面公園","snaen":"YouBike2.0_Jiande Park","sareaen":"Bade Dist.","aren":"No.61, Changxing Rd.(opposite)","sno":"500301014","tot":"38","sbi":"1","mday":"20251125140004","lat":"24.93109","lng":"121.28163","bemp":"37","act":1,"sbi_detail":{"yb2":"1","eyb":"0"}},{"scity":"桃園市","scityen":"Taoyuan City","sna":"YouBike2.0_溪濱公園","sarea":"八德區","ar":"廣興二路79號對面公園","snaen":"YouBike2.0_Xibin Park","sareaen":"Bade Dist.","aren":"No. 79, Guangxing 2nd Rd.(Opposite)","sno":"500301015","tot":"32","sbi":"5","mday":"20251125143303","lat":"24.93311","lng":"121.27889","bemp":"27","act":1,"sbi_detail":{"yb2":"2","eyb":"3"}},{"scity":"桃園市","scityen":"Taoyuan City","sna":"YouBike2.0_豐德公園","sarea":"八德區","ar":"豐田一路85號對面公園","snaen":"YouBike2.0_Fengde Park","sareaen":"Bade Dist.","aren":"No. 85, Fengtian 1st Rd.(Opposite)","sno":"500301016","tot":"38","sbi":"7","mday":"20251125151503","lat":"24.92666","lng":"121.28745","bemp":"31","act":1,"sbi_detail":{"yb2":"6","eyb":"1"}},{"scity":"桃園市","scityen":"Taoyuan City","sna":"YouBike2.0_八德仁德公園","sarea":"八德區","ar":"仁德路218號對面公園","snaen":"YouBike2.0_Bade Rende Park","sareaen":"Bade Dist.","aren":"No.218, Rende Rd.(opposite)","sno":"500301017","tot":"32","sbi":"2","mday":"20251125144503","lat":"24.93513","lng":"121.28733","bemp":"30","act":1,"sbi_detail":{"yb2":"0","eyb":"2"}},{"scity":"桃園市","scityen":"Taoyuan City","sna":"YouBike2.0_茄明里集會所","sarea":"八德區","ar":"中華路27號外側人行道","snaen":"YouBike2.0_Jiaming Activity Center","sareaen":"Bade Dist.","aren":"No.27, Zhonghua Rd.(opposite)","sno":"500301018","tot":"36","sbi":"10","mday":"20251125135802","lat":"24.98639","lng":"121.28182","bemp":"26","act":1,"sbi_detail":{"yb2":"8","eyb":"2"}},{"scity":"桃園市","scityen":"Taoyuan City","sna":"YouBike2.0_八德興豐公園","sarea":"八德區","ar":"豐田路433號旁人行道","snaen":"YouBike2.0_Bade Xingfeng Park","sareaen":"Bade Dist.","aren":"No. 433, Fengtian Rd.","sno":"500301019","tot":"40","sbi":"26","mday":"20251125142203","lat":"24.93048","lng":"121.28949","bemp":"14","act":1,"sbi_detail":{"yb2":"21","eyb":"5"}},{"scity":"桃園市","scityen":"Taoyuan City","sna":"YouBike2.0_八德藝文廣場","sarea":"八德區","ar":"瑞發街55號對面","snaen":"YouBike2.0_Bade Arts Square","sareaen":"Bade Dist.","aren":"No. 55, Ruifa St.(Opposite)","sno":"500301020","tot":"30","sbi":"5","mday":"20251125145002","lat":"24.93358","lng":"121.29929","bemp":"25","act":1,"sbi_detail":{"yb2":"5","eyb":"0"}},{"scity":"桃園市","scityen":"Taoyuan City","sna":"YouBike2.0_茄明公園","sarea":"八德區","ar":"明光街49巷1號對面公園人行道","snaen":"YouBike2.0_Jiaming Park","sareaen":"Bade Dist.","aren":"No. 1, Ln. 49, Guangming St.(Opposite)","sno":"500301021","tot":"32","sbi":"6","mday":"20251125112002","lat":"24.98279","lng":"121.27986","bemp":"26","act":1,"sbi_detail":{"yb2":"5","eyb":"1"}},{"scity":"桃園市","scityen":"Taoyuan City","sna":"YouBike2.0_大忠停車場","sarea":"八德區","ar":"大忠國小地下停車場對面人行道","snaen":"YouBike2.0_Dazhong Parking Lot","sareaen":"Bade Dist.","aren":"No.140, Dazhong St.(opposite)","sno":"500301022","tot":"40","sbi":"4","mday":"20251125111102","lat":"24.95844","lng":"121.30097","bemp":"36","act":1,"sbi_detail":{"yb2":"2","eyb":"2"}},{"scity":"桃園市","scityen":"Taoyuan City","sna":"YouBike2.0_大仁里遊樂場","sarea":"八德區","ar":"國道二號橋下大仁里遊樂場","snaen":"YouBike2.0_Daren Playground","sareaen":"Bade Dist.","aren":"Daren Playground","sno":"500301023","tot":"36","sbi":"9","mday":"20251125142701","lat":"24.96835","lng":"121.31956","bemp":"27","act":1,"sbi_detail":{"yb2":"8","eyb":"1"}},{"scity":"桃園市","scityen":"Taoyuan City","sna":"YouBike2.0_八德區衛生所","sarea":"八德區","ar":"介壽路二段361巷28號前廣場","snaen":"YouBike2.0_Public Health Center of Bade District","sareaen":"Bade Dist.","aren":"No.28, Ln. 361, Sec. 2, Jieshou Rd.","sno":"500301024","tot":"30","sbi":"5","mday":"20251125131002","lat":"24.94768","lng":"121.29846","bemp":"25","act":1,"sbi_detail":{"yb2":"5","eyb":"0"}},{"scity":"桃園市","scityen":"Taoyuan City","sna":"YouBike2.0_大安果樹公園","sarea":"八德區","ar":"建安街3巷1號旁公園","snaen":"YouBike2.0_Da-an Guoshu Park","sareaen":"Bade Dist.","aren":"No. 1, Ln. 3, Jian'an St.","sno":"500301025","tot":"32","sbi":"20","mday":"20251125151802","lat":"24.950006","lng":"121.318555","bemp":"12","act":1,"sbi_detail":{"yb2":"11","eyb":"9"}},{"scity":"桃園市","scityen":"Taoyuan City","sna":"YouBike2.0_瑞泰公園","sarea":"八德區","ar":"介壽路2段583巷16弄12號對面空地","snaen":"YouBike2.0_Ruitai Park","sareaen":"Bade Dist.","aren":"No.12, Aly. 16, Ln. 583, Sec. 2, Jieshou Rd.(opposite)","sno":"500301026","tot":"20","sbi":"3","mday":"20251125142802","lat":"24.94147","lng":"121.29857","bemp":"17","act":1,"sbi_detail":{"yb2":"1","eyb":"2"}},{"scity":"桃園市","scityen":"Taoyuan City","sna":"YouBike2.0_八德埤塘自然生態公園","sarea":"八德區","ar":"榮興路189巷公園人行道","snaen":"YouBike2.0_Bade Pond Ecological Park","sareaen":"Bade Dist.","aren":"Ln. 189, Rongxing Rd.","sno":"500301027","tot":"25","sbi":"8","mday":"20251125152802","lat":"24.94109","lng":"121.31089","bemp":"17","act":1,"sbi_detail":{"yb2":"6","eyb":"2"}},{"scity":"桃園市","scityen":"Taoyuan City","sna":"YouBike2.0_八德區公所","sarea":"八德區","ar":"中山路32號對面人行道","snaen":"YouBike2.0_Civil Affairs District of Bade District","sareaen":"Bade Dist.","aren":"No. 32, Zhongshan Rd.(Opposite)","sno":"500301028","tot":"14","sbi":"0","mday":"20251114130311","lat":"24.92931","lng":"121.28456","bemp":"0","act":"0","sbi_detail":{"yb2":"0","eyb":"0"}},{"scity":"桃園市","scityen":"Taoyuan City","sna":"YouBike2.0_置地生活廣場 八德","sarea":"八德區","ar":"大智路17號對面廣場","snaen":"YouBike2.0_Landmark Life Plaza (Bade)","sareaen":"Bade Dist.","aren":"No.17, Dazhi Rd.(opposite)","sno":"500301029","tot":"40","sbi":"11","mday":"20251125152302","lat":"24.96439","lng":"121.29981","bemp":"28","act":1,"sbi_detail":{"yb2":"11","eyb":"0"}},{"scity":"桃園市","scityen":"Taoyuan City","sna":"YouBike2.0_高城公園","sarea":"八德區","ar":"高城六街48巷9號旁公園","snaen":"YouBike2.0_Gaocheng Park","sareaen":"Bade Dist.","aren":"No.9, Ln. 48, Gaocheng 6th St.","sno":"500301030","tot":"30","sbi":"2","mday":"20251125144019","lat":"24.97932","lng":"121.27420","bemp":"28","act":1,"sbi_detail":{"yb2":"2","eyb":"0"}},{"scity":"桃園市","scityen":"Taoyuan City","sna":"YouBike2.0_八德國民運動中心","sarea":"八德區","ar":"廣福路230號前人行道","snaen":"YouBike2.0_Bade Civil Sports Center","sareaen":"Bade Dist.","aren":"No. 230, Guangfu Rd.","sno":"500301031","tot":"32","sbi":"2","mday":"20251125153003","lat":"24.95981416","lng":"121.2940747","bemp":"26","act":1,"sbi_detail":{"yb2":"2","eyb":"0"}},{"scity":"桃園市","scityen":"Taoyuan City","sna":"YouBike2.0_大發休閒公園","sarea":"八德區","ar":"興豐路2182-1號","snaen":"YouBike2.0_Dafa Park","sareaen":"Bade Dist.","aren":"No. 2182-1, Xingfeng Rd.","sno":"500301032","tot":"15","sbi":"9","mday":"20251125095816","lat":"24.95277","lng":"121.32424","bemp":"5","act":1,"sbi_detail":{"yb2":"7","eyb":"2"}},{"scity":"桃園市","scityen":"Taoyuan City","sna":"YouBike2.0_永豐路519巷口","sarea":"八德區","ar":"永豐路492號","snaen":"YouBike2.0_Ln 519, Yongfeng Rd. Intersection","sareaen":"Bade Dist.","aren":"No. 492, Yongfeng Rd.","sno":"500301033","tot":"44","sbi":"18","mday":"20251125111202","lat":"24.97420","lng":"121.27336","bemp":"9","act":1,"sbi_detail":{"yb2":"4","eyb":"14"}},{"scity":"桃園市","scityen":"Taoyuan City","sna":"YouBike2.0_中大公園","sarea":"八德區","ar":"建德路/興豐路(西南側)","snaen":"YouBike2.0_Zhongda Park","sareaen":"Bade Dist.","aren":"Jiande Rd. & Xingfeng Rd.(Southwest)","sno":"500301034","tot":"31","sbi":"6","mday":"20251125144503","lat":"24.92880","lng":"121.28090","bemp":"24","act":1,"sbi_detail":{"yb2":"6","eyb":"0"}},{"scity":"桃園市","scityen":"Taoyuan City","sna":"YouBike2.0_八德大湳轉運站","sarea":"八德區","ar":"和強路58號南側","snaen":"YouBike2.0_Bade Danan Bus Station","sareaen":"Bade Dist.","aren":"No. 58, Heqiang Rd.(South)","sno":"500301035","tot":"25","sbi":"9","mday":"20251125135616","lat":"24.9603","lng":"121.31887","bemp":"15","act":1,"sbi_detail":{"yb2":"5","eyb":"4"}},{"scity":"桃園市","scityen":"Taoyuan City","sna":"YouBike2.0_八德一號社會住宅","sarea":"八德區","ar":"建德路豐德路口","snaen":"YouBike2.0_Bade 1st Social Housing","sareaen":"Bade Dist.","aren":"Jiande Rd. & Fengde Rd. Intersection","sno":"500301036","tot":"20","sbi":"11","mday":"20251125144202","lat":"24.92494","lng":"121.2808","bemp":"9","act":1,"sbi_detail":{"yb2":"11","eyb":"0"}},{"scity":"桃園市","scityen":"Taoyuan City","sna":"YouBike2.0_八德三號社會住宅","sarea":"八德區","ar":"豐德路中山路口","snaen":"YouBike2.0_Bade 3rd Social Housing","sareaen":"Bade Dist.","aren":"Fengde Rd. & Zhongshan Rd. Intersection","sno":"500301037","tot":"20","sbi":"8","mday":"20251125151503","lat":"24.92527","lng":"121.28393","bemp":"11","act":1,"sbi_detail":{"yb2":"6","eyb":"2"}},{"scity":"桃園市","scityen":"Taoyuan City","sna":"YouBike2.0_瑞德里市民活動中心","sarea":"八德區","ar":"介壽路二段1432號","snaen":"YouBike2.0_Ruide Civil Activity Center","sareaen":"Bade Dist.","aren":"No. 1432, Sec. 2, Jieshou Rd.","sno":"500301038","tot":"35","sbi":"13","mday":"20251125095003","lat":"24.92495","lng":"121.29603","bemp":"22","act":1,"sbi_detail":{"yb2":"13","eyb":"0"}},{"scity":"桃園市","scityen":"Taoyuan City","sna":"YouBike2.0_福僑公園","sarea":"八德區","ar":"福國街77巷43號南側","snaen":"YouBike2.0_Fuqiao Park","sareaen":"Bade Dist.","aren":"No. 43, Ln. 77, Fuguo St.(South)","sno":"500301039","tot":"20","sbi":"4","mday":"20251125093715","lat":"24.95775","lng":"121.29479","bemp":"16","act":1,"sbi_detail":{"yb2":"4","eyb":"0"}},{"scity":"桃園市","scityen":"Taoyuan City","sna":"YouBike2.0_百年里昂社區","sarea":"八德區","ar":"竹興街17號對側","snaen":"YouBike2.0_Bade Li'ang Community","sareaen":"Bade Dist.","aren":"No. 17, Zhuxing St.(Opposite)","sno":"500301040","tot":"15","sbi":"3","mday":"20251125151603","lat":"24.93341","lng":"121.27036","bemp":"12","act":1,"sbi_detail":{"yb2":"1","eyb":"2"}},{"scity":"桃園市","scityen":"Taoyuan City","sna":"YouBike2.0_和平忠勇街口","sarea":"八德區","ar":"和平路222號北側","snaen":"YouBike2.0_Heping Zhongyong St. Intersection","sareaen":"Bade Dist.","aren":"No. 222, Heping Rd.(North)","sno":"500301041","tot":"27","sbi":"14","mday":"20251125142004","lat":"24.957631","lng":"121.304381","bemp":"13","act":1,"sbi_detail":{"yb2":"13","eyb":"1"}},{"scity":"桃園市","scityen":"Taoyuan City","sna":"YouBike2.0_大湳滯洪池","sarea":"八德區","ar":"和平路528巷2號西側","snaen":"YouBike2.0_Da'nan Detention Basin","sareaen":"Bade Dist.","aren":"No. 2, Ln. 528, Heping Rd.(West)","sno":"500301042","tot":"27","sbi":"12","mday":"20251125131002","lat":"24.95617","lng":"121.3107","bemp":"14","act":1,"sbi_detail":{"yb2":"12","eyb":"0"}},{"scity":"桃園市","scityen":"Taoyuan City","sna":"YouBike2.0_永豐路公園","sarea":"八德區","ar":"永豐路519巷口","snaen":"YouBike2.0_Yongfeng Rd. Park","sareaen":"Bade Dist.","aren":"Ln. 519, Yongfeng Rd.","sno":"500301043","tot":"29","sbi":"6","mday":"20251124161003","lat":"24.97485","lng":"121.27384","bemp":"23","act":1,"sbi_detail":{"yb2":"6","eyb":"0"}},{"scity":"桃園市","scityen":"Taoyuan City","sna":"YouBike2.0_八德楓樹腳公園","sarea":"八德區","ar":"介壽路二段940號北側","snaen":"YouBike2.0_Bade Fengshujiao Park","sareaen":"Bade Dist.","aren":"No. 940, Sec. 2, Jieshou Rd.(North)","sno":"500301044","tot":"27","sbi":"1","mday":"20251125082216","lat":"24.935374","lng":"121.297216","bemp":"26","act":1,"sbi_detail":{"yb2":"0","eyb":"1"}},{"scity":"桃園市","scityen":"Taoyuan City","sna":"YouBike2.0_瑞祥市民活動中心","sarea":"八德區","ar":"介壽路二段1233巷46-1號","snaen":"YouBike2.0_Ruixiang Civil Activity Center","sareaen":"Bade Dist.","aren":"No. 46-1, Ln. 1233, Sec. 2, Jieshou Rd.","sno":"500301045","tot":"24","sbi":"13","mday":"20251124025903","lat":"24.93035","lng":"121.29887","bemp":"11","act":1,"sbi_detail":{"yb2":"2","eyb":"11"}},{"scity":"桃園市","scityen":"Taoyuan City","sna":"YouBike2.0_大勤街70巷與大勤街口","sarea":"八德區","ar":"大勤街70巷與大勤街口","snaen":"YouBike2.0_Ln. 70, Daqin St. Intersection","sareaen":"Bade Dist.","aren":"Ln. 70, Daqin St. Intersection","sno":"500301046","tot":"15","sbi":"5","mday":"20251125081217","lat":"24.94740","lng":"121.28752","bemp":"10","act":1,"sbi_detail":{"yb2":"1","eyb":"4"}},{"scity":"桃園市","scityen":"Taoyuan City","sna":"YouBike2.0_北區客家會館","sarea":"八德區","ar":"崁頂路60號","snaen":"YouBike2.0_Northern Taoyuan Hakka Cultural Hall","sareaen":"Bade Dist.","aren":"No. 60, Kanding Rd.","sno":"500301047","tot":"26","sbi":"9","mday":"20251125143402","lat":"24.93524","lng":"121.26195","bemp":"17","act":1,"sbi_detail":{"yb2":"7","eyb":"2"}},{"scity":"桃園市","scityen":"Taoyuan City","sna":"YouBike2.0_榮興路896巷口榮興公園","sarea":"八德區","ar":"榮興路896巷口榮興公園","snaen":"YouBike2.0_Ln. 896, Rongxing Rd. Intersection(Rongxing Park)","sareaen":"Bade Dist.","aren":"Ln. 896, Rongxing Rd. Intersection(Rongxing Park)","sno":"500301048","tot":"20","sbi":"5","mday":"20251125102004","lat":"24.93944","lng":"121.30498","bemp":"15","act":1,"sbi_detail":{"yb2":"2","eyb":"3"}},{"scity":"桃園市","scityen":"Taoyuan City","sna":"YouBike2.0_仁德路75巷(兩側)","sarea":"八德區","ar":"仁德路83號","snaen":"YouBike2.0_Ln. 75, Ren'de Rd. Intersection(Duo)","sareaen":"Bade Dist.","aren":"No. 83, Ren'de Rd.","sno":"500301049","tot":"27","sbi":"2","mday":"20251125150003","lat":"24.93605","lng":"121.28369","bemp":"25","act":1,"sbi_detail":{"yb2":"1","eyb":"1"}},{"scity":"桃園市","scityen":"Taoyuan City","sna":"YouBike2.0_文昌休閒公園","sarea":"八德區","ar":"文昌街72號","snaen":"YouBike2.0_Wenchang Park","sareaen":"Bade Dist.","aren":"No. 72, Wenchang St.","sno":"500301050","tot":"30","sbi":"1","mday":"20251125142515","lat":"24.95539","lng":"121.29424","bemp":"29","act":1,"sbi_detail":{"yb2":"1","eyb":"0"}},{"scity":"桃園市","scityen":"Taoyuan City","sna":"YouBike2.0_建德廣興五街口","sarea":"八德區","ar":"建德路500號","snaen":"YouBike2.0_Jiande & Guangxing 5th St. Intersection","sareaen":"Bade Dist.","aren":"No. 500, Jiande Rd.","sno":"500301051","tot":"16","sbi":"8","mday":"20251125104003","lat":"24.93541","lng":"121.28136","bemp":"5","act":1,"sbi_detail":{"yb2":"6","eyb":"2"}},{"scity":"桃園市","scityen":"Taoyuan City","sna":"YouBike2.0_豐田路與豐田一路口","sarea":"八德區","ar":"豐田路43號前","snaen":"YouBike2.0_Fengtian & Fengtian 1st Rd. Intersection","sareaen":"Bade Dist.","aren":"No. 43, Fengtian Rd.","sno":"500301052","tot":"40","sbi":"3","mday":"20251125114602","lat":"24.92647","lng":"121.29013","bemp":"37","act":1,"sbi_detail":{"yb2":"3","eyb":"0"}},{"scity":"桃園市","scityen":"Taoyuan City","sna":"YouBike2.0_八德社福館","sarea":"八德區","ar":"福國北街220號","snaen":"YouBike2.0_Bade Social Welfare Center","sareaen":"Bade Dist.","aren":"No. 220, Fuguo N. Rd.","sno":"500301053","tot":"20","sbi":"6","mday":"20251125093803","lat":"24.96326","lng":"121.29691","bemp":"14","act":1,"sbi_detail":{"yb2":"5","eyb":"1"}},{"scity":"桃園市","scityen":"Taoyuan City","sna":"YouBike2.0_捷運大園站(A15)","sarea":"大園區","ar":"橫湳一路1號捷運站旁人行道","snaen":"YouBike2.0_MRT  Dayuan Station(A15)","sareaen":"Dayuan Dist.","aren":"No.1, Hengnan 1st. Rd.","sno":"500302001","tot":"32","sbi":"11","mday":"20251125144503","lat":"25.05663","lng":"121.20974","bemp":"20","act":1,"sbi_detail":{"yb2":"11","eyb":"0"}},{"scity":"桃園市","scityen":"Taoyuan City","sna":"YouBike2.0_捷運領航站(A17)","sarea":"大園區","ar":"領航北路四段358號對面人行道","snaen":"YouBike2.0_MRT Linghang Station (A17)","sareaen":"Dayuan Dist.","aren":"No.358, Sec. 4, Linghang N. Rd.(opposite)","sno":"500302002","tot":"24","sbi":"15","mday":"20251125153003","lat":"25.02302","lng":"121.22217","bemp":"9","act":1,"sbi_detail":{"yb2":"13","eyb":"2"}},{"scity":"桃園市","scityen":"Taoyuan City","sna":"YouBike2.0_桃禧航空城酒店","sarea":"大園區","ar":"大觀路777號(桃禧航空城酒店園航路側人行道)","snaen":"YouBike2.0_Hotel Orchard Park","sareaen":"Dayuan Dist.","aren":"No.777, Daguan Rd.","sno":"500302003","tot":"26","sbi":"5","mday":"20251125152004","lat":"25.06176","lng":"121.17535","bemp":"20","act":1,"sbi_detail":{"yb2":"4","eyb":"1"}},{"scity":"桃園市","scityen":"Taoyuan City","sna":"YouBike2.0_老街溪停車場","sarea":"大園區","ar":"大觀路31巷1號旁老街溪上方停車場","snaen":"YouBike2.0_Laojie River Parking Lot","sareaen":"Dayuan Dist.","aren":"No.1, Ln. 31, Daguan Rd.","sno":"500302004","tot":"36","sbi":"7","mday":"20251125144503","lat":"25.06497","lng":"121.19580","bemp":"29","act":1,"sbi_detail":{"yb2":"6","eyb":"1"}},{"scity":"桃園市","scityen":"Taoyuan City","sna":"YouBike2.0_大中華幼兒園","sarea":"大園區","ar":"中正三街9號對面空地","snaen":"YouBike2.0_Big China Kindergarten","sareaen":"Dayuan Dist.","aren":"No.9, Zhongzheng 3rd St.(opposite)","sno":"500302005","tot":"34","sbi":"9","mday":"20251125152802","lat":"25.06179","lng":"121.20183","bemp":"24","act":1,"sbi_detail":{"yb2":"8","eyb":"1"}},{"scity":"桃園市","scityen":"Taoyuan City","sna":"YouBike2.0_華興池(華興路)","sarea":"大園區","ar":"長興街50號西側","snaen":"YouBike2.0_Huaxing Pool Park(Huaxing Rd.)","sareaen":"Dayuan Dist.","aren":"No. 50, Changxing St.(West)","sno":"500302006","tot":"29","sbi":"6","mday":"20251125150602","lat":"25.05913","lng":"121.19485","bemp":"22","act":1,"sbi_detail":{"yb2":"6","eyb":"0"}},{"scity":"桃園市","scityen":"Taoyuan City","sna":"YouBike2.0_大園國際高中","sarea":"大園區","ar":"大成路二段37號對面人行道","snaen":"YouBike2.0_Dayuan International Senior High School","sareaen":"Dayuan Dist.","aren":"No.37, Sec. 2, Dacheng Rd.(opposite)","sno":"500302007","tot":"60","sbi":"21","mday":"20251125115004","lat":"25.02083","lng":"121.22051","bemp":"26","act":1,"sbi_detail":{"yb2":"21","eyb":"0"}},{"scity":"桃園市","scityen":"Taoyuan City","sna":"YouBike2.0_大園國中","sarea":"大園區","ar":"園科路400號前人行道","snaen":"YouBike2.0_Dayuan Junior High School","sareaen":"Dayuan Dist.","aren":"No.400, Yuanhang Rd.","sno":"500302008","tot":"30","sbi":"6","mday":"20251125065005","lat":"25.053976","lng":"121.171991","bemp":"24","act":1,"sbi_detail":{"yb2":"6","eyb":"0"}},{"scity":"桃園市","scityen":"Taoyuan City","sna":"YouBike2.0_兒九公園","sarea":"大園區","ar":"致遠街致維街口公園內","snaen":"YouBike2.0_Erjiu Park","sareaen":"Dayuan Dist.","aren":"Zhiyuan St./Jhihwei St.","sno":"500302009","tot":"33","sbi":"2","mday":"20251125142701","lat":"25.00508","lng":"121.21279","bemp":"30","act":1,"sbi_detail":{"yb2":"1","eyb":"1"}},{"scity":"桃園市","scityen":"Taoyuan City","sna":"YouBike2.0_菓林國小","sarea":"大園區","ar":"菓林里12鄰41號前方人行道","snaen":"YouBike2.0_Guo Lin Elementary School","sareaen":"Dayuan Dist.","aren":"No 41, Neighborhood 12,Guolin Vil.","sno":"500302010","tot":"26","sbi":"8","mday":"20251125142102","lat":"25.07767","lng":"121.25622","bemp":"18","act":1,"sbi_detail":{"yb2":"8","eyb":"0"}},{"scity":"桃園市","scityen":"Taoyuan City","sna":"YouBike2.0_遠雄自貿港區加值園區","sarea":"大園區","ar":"航翔路5號前方廣場","snaen":"YouBike2.0_Farglory Free Trade Zone Value-Added Park","sareaen":"Dayuan Dist.","aren":"No.5, Hangsiang Rd.","sno":"500302011","tot":"32","sbi":"23","mday":"20251125150602","lat":"25.09361","lng":"121.25521","bemp":"9","act":1,"sbi_detail":{"yb2":"22","eyb":"1"}},{"scity":"桃園市","scityen":"Taoyuan City","sna":"YouBike2.0_大園幼兒園三和分班","sarea":"大園區","ar":"三和路1之1號","snaen":"YouBike2.0_Dayuan Preschool(Sanhe Class)","sareaen":"Dayuan Dist.","aren":"No. 1-1, Sanhe Rd.","sno":"500302012","tot":"15","sbi":"3","mday":"20251125114502","lat":"25.07305","lng":"121.2591","bemp":"12","act":1,"sbi_detail":{"yb2":"3","eyb":"0"}},{"scity":"桃園市","scityen":"Taoyuan City","sna":"YouBike2.0_青山里市民活動中心","sarea":"大園區","ar":"興德路131號","snaen":"YouBike2.0_Qingshan Civil Activity Center","sareaen":"Dayuan Dist.","aren":"No. 131, Xingde Rd.","sno":"500302013","tot":"15","sbi":"2","mday":"20251125124316","lat":"25.01711","lng":"121.21015","bemp":"12","act":1,"sbi_detail":{"yb2":"2","eyb":"0"}},{"scity":"桃園市","scityen":"Taoyuan City","sna":"YouBike2.0_領航北大安街口","sarea":"大園區","ar":"領航北路四段122號","snaen":"YouBike2.0_Linghang N. & Da'an St. Intersection","sareaen":"Dayuan Dist.","aren":"No. 122, Sec. 4, Linghang N. Rd.","sno":"500302014","tot":"18","sbi":"3","mday":"20251125151503","lat":"25.02291","lng":"121.21605","bemp":"15","act":1,"sbi_detail":{"yb2":"3","eyb":"0"}},{"scity":"桃園市","scityen":"Taoyuan City","sna":"YouBike2.0_大園區致維街停車場","sarea":"大園區","ar":"公園路一段11號西北側","snaen":"YouBike2.0_Dayuan Dist. Zhiwei St. Parking Lot","sareaen":"Dayuan Dist.","aren":"No. 11, Sec. 1, Gongyuan Rd.(Northwest)","sno":"500302015","tot":"25","sbi":"1","mday":"20251125141815","lat":"25.00376","lng":"121.21164","bemp":"24","act":1,"sbi_detail":{"yb2":"0","eyb":"1"}},{"scity":"桃園市","scityen":"Taoyuan City","sna":"YouBike2.0_兒2兒童公園","sarea":"大園區","ar":"新生北路27號旁","snaen":"YouBike2.0_2nd Children's Park","sareaen":"Dayuan Dist.","aren":"No. 27, Xinsheng N. Rd.","sno":"500302016","tot":"16","sbi":"6","mday":"20251125134002","lat":"25.06740","lng":"121.19795","bemp":"10","act":1,"sbi_detail":{"yb2":"6","eyb":"0"}},{"scity":"桃園市","scityen":"Taoyuan City","sna":"YouBike2.0_華興池(中園街)","sarea":"大園區","ar":"永興路204號南側","snaen":"YouBike2.0_Huaxing Pool Park(Zhongyuan St.)","sareaen":"Dayuan Dist.","aren":"No. 204, Yongxing Rd.(South)","sno":"500302017","tot":"24","sbi":"9","mday":"20251123073402","lat":"25.05989","lng":"121.19288","bemp":"15","act":1,"sbi_detail":{"yb2":"9","eyb":"0"}},{"scity":"桃園市","scityen":"Taoyuan City","sna":"YouBike2.0_竹圍漁港天幕","sarea":"大園區","ar":"漁港路353巷176號","snaen":"YouBike2.0_Zhuwei Fishing Harbor Skyline","sareaen":"Dayuan Dist.","aren":"No. 176, Ln. 353, Yugang Rd.","sno":"500302018","tot":"24","sbi":"11","mday":"20251125114502","lat":"25.11482","lng":"121.24068","bemp":"12","act":1,"sbi_detail":{"yb2":"11","eyb":"0"}},{"scity":"桃園市","scityen":"Taoyuan City","sna":"YouBike2.0_溪海休閒農業園區","sarea":"大園區","ar":"聖德北路879巷口","snaen":"YouBike2.0_Xihai Leisure Agriculture Area","sareaen":"Dayuan Dist.","aren":"Shengde N. Rd. & Ln. 879 Intersection","sno":"500302019","tot":"25","sbi":"4","mday":"20251125153003","lat":"25.03215","lng":"121.19573","bemp":"21","act":1,"sbi_detail":{"yb2":"3","eyb":"1"}},{"scity":"桃園市","scityen":"Taoyuan City","sna":"YouBike2.0_兒八公園","sarea":"大園區","ar":"高鐵南路一段/致善路一段","snaen":"YouBike2.0_8th Children's Park","sareaen":"Dayuan Dist.","aren":"Sec. 1, Gaotie S. Rd. & Sec. 1, Zhishan Rd. Intersection","sno":"500302020","tot":"23","sbi":"6","mday":"20251125152302","lat":"25.00823","lng":"121.21023","bemp":"16","act":1,"sbi_detail":{"yb2":"6","eyb":"0"}},{"scity":"桃園市","scityen":"Taoyuan City","sna":"YouBike2.0_南港市民活動中心","sarea":"大園區","ar":"大園區文治路20號旁停車場","snaen":"YouBike2.0_Nangang Civil Activity Center(Dayuan)","sareaen":"Dayuan Dist.","aren":"No. 20, Wenzhi Rd.","sno":"500302021","tot":"33","sbi":"9","mday":"20251125142203","lat":"25.050590","lng":"121.169662","bemp":"23","act":1,"sbi_detail":{"yb2":"8","eyb":"1"}},{"scity":"桃園市","scityen":"Taoyuan City","sna":"YouBike2.0_捷運橫山站(A16)","sarea":"大園區","ar":"大竹南路1180號","snaen":"YouBike2.0_MRT Hengshan Sta. (A16)","sareaen":"Dayuan Dist.","aren":"No. 1180, Dazhu S. Rd.","sno":"500302022","tot":"33","sbi":"16","mday":"20251125151402","lat":"25.03656","lng":"121.21613","bemp":"17","act":1,"sbi_detail":{"yb2":"16","eyb":"0"}},{"scity":"桃園市","scityen":"Taoyuan City","sna":"YouBike2.0_陽光劇場","sarea":"大園區","ar":"領航北路四段251號南側","snaen":"YouBike2.0_Taoyuan Sunlight Arena","sareaen":"Dayuan Dist.","aren":"No. 251, Sec. 4, Linghang N. Rd.(South)","sno":"500302023","tot":"36","sbi":"8","mday":"20251125151302","lat":"25.02430","lng":"121.21981","bemp":"25","act":1,"sbi_detail":{"yb2":"8","eyb":"0"}},{"scity":"桃園市","scityen":"Taoyuan City","sna":"YouBike2.0_航空城博物館園區","sarea":"大園區","ar":"桃航三路456巷60號(對側)","snaen":"YouBike2.0_Taoyuan Air Base Museum","sareaen":"Dayuan Dist.","aren":"No. 60, Ln. 456, Taohang 3rd Rd.(Opposite)","sno":"500302024","tot":"22","sbi":"8","mday":"20251124205004","lat":"25.04845","lng":"121.22938","bemp":"12","act":1,"sbi_detail":{"yb2":"8","eyb":"0"}},{"scity":"桃園市","scityen":"Taoyuan City","sna":"YouBike2.0_科三科一街口","sarea":"大園區","ar":"科一街165號北側","snaen":"YouBike2.0_Ke 3rd & Ke 1st St. Intersection","sareaen":"Dayuan Dist.","aren":"No. 165, Ke 1st St.(North)","sno":"500302025","tot":"24","sbi":"13","mday":"20251125132245","lat":"25.05576","lng":"121.17055","bemp":"10","act":1,"sbi_detail":{"yb2":"12","eyb":"1"}},{"scity":"桃園市","scityen":"Taoyuan City","sna":"YouBike2.0_月眉停車場","sarea":"大溪區","ar":"月眉15鄰105號","snaen":"YouBike2.0_Yuemei Parking Lot","sareaen":"Daxi Dist.","aren":"No.105, Yuemei","sno":"500303001","tot":"50","sbi":"9","mday":"20251125143602","lat":"24.88928","lng":"121.28761","bemp":"41","act":1,"sbi_detail":{"yb2":"9","eyb":"0"}},{"scity":"桃園市","scityen":"Taoyuan City","sna":"YouBike2.0_大溪中正公園","sarea":"大溪區","ar":"普濟路80號旁停車場","snaen":"YouBike2.0_Daxi Zhongzheng Park","sareaen":"Daxi Dist.","aren":"No.80, Puji Rd.","sno":"500303002","tot":"44","sbi":"8","mday":"20251125110003","lat":"24.88315","lng":"121.28545","bemp":"35","act":1,"sbi_detail":{"yb2":"8","eyb":"0"}},{"scity":"桃園市","scityen":"Taoyuan City","sna":"YouBike2.0_埔頂公園","sarea":"大溪區","ar":"仁善街102號對面停車場內","snaen":"YouBike2.0_Puding Park","sareaen":"Daxi Dist.","aren":"No.102, Renshan St. (opposite)","sno":"500303003","tot":"30","sbi":"11","mday":"20251125142102","lat":"24.909334","lng":"121.283030","bemp":"19","act":1,"sbi_detail":{"yb2":"6","eyb":"5"}},{"scity":"桃園市","scityen":"Taoyuan City","sna":"YouBike2.0_大溪河濱公園","sarea":"大溪區","ar":"瑞興段2407地號內停車格","snaen":"YouBike2.0_Daxi Riverside Park","sareaen":"Daxi Dist.","aren":"No.2407 of Ruixing Section","sno":"500303004","tot":"42","sbi":"2","mday":"20251125142004","lat":"24.89320","lng":"121.28495","bemp":"39","act":1,"sbi_detail":{"yb2":"2","eyb":"0"}},{"scity":"桃園市","scityen":"Taoyuan City","sna":"YouBike2.0_仁和國小","sarea":"大溪區","ar":"仁和二街50號旁人行道","snaen":"YouBike2.0_Renhe Elementary School","sareaen":"Daxi Dist.","aren":"No.50, Renhe 2nd St.(opposite)","sno":"500303005","tot":"30","sbi":"10","mday":"20251125144004","lat":"24.89764","lng":"121.27678","bemp":"20","act":1,"sbi_detail":{"yb2":"8","eyb":"2"}},{"scity":"桃園市","scityen":"Taoyuan City","sna":"YouBike2.0_十大觀光小城公園","sarea":"大溪區","ar":"介壽路965號對面公園","snaen":"YouBike2.0_Ten Sightseeing Town Park","sareaen":"Daxi Dist.","aren":"No.965, Jieshou Rd.(opposite)","sno":"500303006","tot":"15","sbi":"10","mday":"20251125064003","lat":"24.90511","lng":"121.28481","bemp":"5","act":1,"sbi_detail":{"yb2":"7","eyb":"3"}},{"scity":"桃園市","scityen":"Taoyuan City","sna":"YouBike2.0_僑愛停車場","sarea":"大溪區","ar":"僑愛一街46巷11號東南側停車場","snaen":"YouBike2.0_Qiao'ai Parking lot","sareaen":"Daxi Dist.","aren":"No. 11, Ln. 46, Qiaoaiyi St. (Southeast)","sno":"500303007","tot":"40","sbi":"7","mday":"20251125153003","lat":"24.92192","lng":"121.29378","bemp":"33","act":1,"sbi_detail":{"yb2":"7","eyb":"0"}},{"scity":"桃園市","scityen":"Taoyuan City","sna":"YouBike2.0_大溪永昌宮","sarea":"大溪區","ar":"仁和路二段190巷27號前方廣場","snaen":"YouBike2.0_Daxi YongChang Temple","sareaen":"Daxi Dist.","aren":"No.27, Ln. 190, Sec. 2, Renhe Rd.","sno":"500303008","tot":"15","sbi":"8","mday":"20251125141202","lat":"24.90415","lng":"121.26523","bemp":"7","act":1,"sbi_detail":{"yb2":"5","eyb":"3"}},{"scity":"桃園市","scityen":"Taoyuan City","sna":"YouBike2.0_三元公園","sarea":"大溪區","ar":"員林路二段450號對面公園","snaen":"YouBike2.0_Sanyuan Park","sareaen":"Daxi Dist.","aren":"No.450, Sec. 2, Yuanlin Rd.(opposite)","sno":"500303009","tot":"25","sbi":"2","mday":"20251125111002","lat":"24.88280","lng":"121.26655","bemp":"23","act":1,"sbi_detail":{"yb2":"2","eyb":"0"}},{"scity":"桃園市","scityen":"Taoyuan City","sna":"YouBike2.0_中科院五號門","sarea":"大溪區","ar":"石園路615號前方空地","snaen":"YouBike2.0_NCSIST Gate 5","sareaen":"Daxi Dist.","aren":"No.615, Shihyuan Rd.(opposite)","sno":"500303010","tot":"20","sbi":"13","mday":"20251125124003","lat":"24.86717","lng":"121.25614","bemp":"7","act":1,"sbi_detail":{"yb2":"6","eyb":"7"}},{"scity":"桃園市","scityen":"Taoyuan City","sna":"YouBike2.0_至善高中","sarea":"大溪區","ar":"康莊路645號","snaen":"YouBike2.0_Jhih Shan High School","sareaen":"Daxi Dist.","aren":"No. 645, Kangzhuang Rd.","sno":"500303011","tot":"32","sbi":"3","mday":"20251124173616","lat":"24.86729","lng":"121.28450","bemp":"29","act":1,"sbi_detail":{"yb2":"2","eyb":"1"}},{"scity":"桃園市","scityen":"Taoyuan City","sna":"YouBike2.0_埔頂公園(公園路)","sarea":"大溪區","ar":"公園路117號對側","snaen":"YouBike2.0_Puding Park(Gongyuan Rd.)","sareaen":"Daxi Dist.","aren":"No. 117, Gongyuan Rd.(Opposite)","sno":"500303012","tot":"27","sbi":"0","mday":"20251114133847","lat":"24.90597","lng":"121.28111","bemp":"0","act":"0","sbi_detail":{"yb2":"0","eyb":"0"}},{"scity":"桃園市","scityen":"Taoyuan City","sna":"YouBike2.0_中庄福德宮","sarea":"大溪區","ar":"大鶯路1566號","snaen":"YouBike2.0_Zhongzhuang Fude Temple","sareaen":"Daxi Dist.","aren":"No. 1566, Daying Rd.","sno":"500303013","tot":"15","sbi":"10","mday":"20251124055102","lat":"24.92997","lng":"121.31872","bemp":"4","act":1,"sbi_detail":{"yb2":"6","eyb":"4"}},{"scity":"桃園市","scityen":"Taoyuan City","sna":"YouBike2.0_山豬湖生態親水園區","sarea":"大溪區","ar":"信義路525巷10弄582號","snaen":"YouBike2.0_Shanzhuhu Hydro-ecology Park","sareaen":"Daxi Dist.","aren":"No. 582, Aly. 10, Ln. 525, Xinyi Rd.","sno":"500303014","tot":"36","sbi":"5","mday":"20251125151004","lat":"24.90402","lng":"121.30375","bemp":"31","act":1,"sbi_detail":{"yb2":"1","eyb":"4"}},{"scity":"桃園市","scityen":"Taoyuan City","sna":"YouBike2.0_大溪運動公園","sarea":"大溪區","ar":"員林路三段155巷51號西側","snaen":"YouBike2.0_Daxi Sports Park","sareaen":"Daxi Dist.","aren":"No. 51, Ln. 155, Sec. 3, Yuanlin Rd.(West)","sno":"500303015","tot":"18","sbi":"7","mday":"20251124112002","lat":"24.87861","lng":"121.26120","bemp":"11","act":1,"sbi_detail":{"yb2":"3","eyb":"4"}},{"scity":"桃園市","scityen":"Taoyuan City","sna":"YouBike2.0_勤奮公園","sarea":"大溪區","ar":"齋明街56-1號北側","snaen":"YouBike2.0_Qinfen Park","sareaen":"Daxi Dist.","aren":"No. 56-1, Zhaiming St.(North)","sno":"500303016","tot":"15","sbi":"4","mday":"20251125112002","lat":"24.88628","lng":"121.27222","bemp":"11","act":1,"sbi_detail":{"yb2":"2","eyb":"2"}},{"scity":"桃園市","scityen":"Taoyuan City","sna":"YouBike2.0_員林路一段29巷","sarea":"大溪區","ar":"福居街76號","snaen":"YouBike2.0_Ln. 29, Sec. 1, Yuanlin Rd.","sareaen":"Daxi Dist.","aren":"No. 76, Fuju St.","sno":"500303017","tot":"20","sbi":"10","mday":"20251124084502","lat":"24.8964","lng":"121.28138","bemp":"9","act":1,"sbi_detail":{"yb2":"7","eyb":"3"}},{"scity":"桃園市","scityen":"Taoyuan City","sna":"YouBike2.0_石門水庫坪林管制站","sarea":"大溪區","ar":"康莊路五段713號北側","snaen":"YouBike2.0_Shihmen Reservoir Pinglin Control Post","sareaen":"Daxi Dist.","aren":"No. 713, Sec. 5, Kangzhuang Rd.(North)","sno":"500303018","tot":"40","sbi":"17","mday":"20251124150005","lat":"24.82115","lng":"121.25612","bemp":"21","act":1,"sbi_detail":{"yb2":"16","eyb":"1"}},{"scity":"桃園市","scityen":"Taoyuan City","sna":"YouBike2.0_中央大學圖書館","sarea":"中壢區","ar":"中大路300號(中央大學校內圖書館前)","snaen":"YouBike2.0_National Central University Library","sareaen":"Zhongli Dist.","aren":"No.300, Zhongda Rd.","sno":"500304001","tot":"62","sbi":"21","mday":"20251125152602","lat":"24.96813","lng":"121.19467","bemp":"38","act":1,"sbi_detail":{"yb2":"15","eyb":"6"}},{"scity":"桃園市","scityen":"Taoyuan City","sna":"YouBike2.0_中壢高中","sarea":"中壢區","ar":"中央西路二段215號對面人行道","snaen":"YouBike2.0_Jhungli Senior High School","sareaen":"Zhongli Dist.","aren":"No.215, Sec. 2, Zhongyang W. Rd. (opposite)","sno":"500304002","tot":"52","sbi":"33","mday":"20251125135802","lat":"24.96082","lng":"121.21204","bemp":"19","act":1,"sbi_detail":{"yb2":"33","eyb":"0"}},{"scity":"桃園市","scityen":"Taoyuan City","sna":"YouBike2.0_中壢火車站(前站)中和路","sarea":"中壢區","ar":"中和路109號空地","snaen":"YouBike2.0_TRA Zhongli Station (Front) Zhonghe Rd.","sareaen":"Zhongli Dist.","aren":"No. 109, Zhonghe Rd.","sno":"500304003","tot":"60","sbi":"12","mday":"20251125152802","lat":"24.95404","lng":"121.22644","bemp":"48","act":1,"sbi_detail":{"yb2":"7","eyb":"5"}},{"scity":"桃園市","scityen":"Taoyuan City","sna":"YouBike2.0_中原大學","sarea":"中壢區","ar":"中北路200號(中原大學校內懷恩樓後方空地)","snaen":"YouBike2.0_Chung Yuan Christian University","sareaen":"Zhongli Dist.","aren":"No.200, Zhongbei Rd.","sno":"500304004","tot":"99","sbi":"47","mday":"20251125153003","lat":"24.95794","lng":"121.2402","bemp":"50","act":1,"sbi_detail":{"yb2":"36","eyb":"11"}},{"scity":"桃園市","scityen":"Taoyuan City","sna":"YouBike2.0_銀河廣場","sarea":"中壢區","ar":"九和一街48號對面銀河廣場人行道","snaen":"YouBike2.0_Galaxy Square","sareaen":"Zhongli Dist.","aren":"No.48, Jiuhe 1st St. (opposite)","sno":"500304005","tot":"58","sbi":"11","mday":"20251125151603","lat":"24.96172","lng":"121.22424","bemp":"47","act":1,"sbi_detail":{"yb2":"7","eyb":"4"}},{"scity":"桃園市","scityen":"Taoyuan City","sna":"YouBike2.0_中壢區公所","sarea":"中壢區","ar":"環北路380號旁人行道","snaen":"YouBike2.0_Civil Affairs Office of Zhongli District","sareaen":"Zhongli Dist.","aren":"No.380, Huanbei Rd.","sno":"500304006","tot":"40","sbi":"8","mday":"20251125150003","lat":"24.9657","lng":"121.2247","bemp":"31","act":1,"sbi_detail":{"yb2":"7","eyb":"1"}},{"scity":"桃園市","scityen":"Taoyuan City","sna":"YouBike2.0_光明公園","sarea":"中壢區","ar":"民權路322號對面停車場","snaen":"YouBike2.0_Guangming Park","sareaen":"Zhongli Dist.","aren":"No.322, Minquan Rd. (opposite)","sno":"500304007","tot":"96","sbi":"78","mday":"20251125151719","lat":"24.96281","lng":"121.21739","bemp":"6","act":1,"sbi_detail":{"yb2":"76","eyb":"2"}},{"scity":"桃園市","scityen":"Taoyuan City","sna":"YouBike2.0_翠堤橋","sarea":"中壢區","ar":"義民路105號旁人行道","snaen":"YouBike2.0_Cuiti Bridge","sareaen":"Zhongli Dist.","aren":"No.105, Yimin Rd.","sno":"500304008","tot":"46","sbi":"14","mday":"20251125124003","lat":"24.95327","lng":"121.21588","bemp":"30","act":1,"sbi_detail":{"yb2":"7","eyb":"7"}},{"scity":"桃園市","scityen":"Taoyuan City","sna":"YouBike2.0_中壢國小","sarea":"中壢區","ar":"康樂路61號旁公園","snaen":"YouBike2.0_Chungli Elementary School","sareaen":"Zhongli Dist.","aren":"No.61, Kangle Rd. (opposite)","sno":"500304009","tot":"46","sbi":"21","mday":"20251125151802","lat":"24.9541","lng":"121.22035","bemp":"25","act":1,"sbi_detail":{"yb2":"17","eyb":"4"}},{"scity":"桃園市","scityen":"Taoyuan City","sna":"YouBike2.0_莒光公園","sarea":"中壢區","ar":"寧夏二街43號對面莒光公園入口圓環","snaen":"YouBike2.0_Juguang Park","sareaen":"Zhongli Dist.","aren":"No.43,Ningxia 2nd St. (opposite)","sno":"500304010","tot":"30","sbi":"0","mday":"20251125152415","lat":"24.95147","lng":"121.23569","bemp":"29","act":1,"sbi_detail":{"yb2":"0","eyb":"0"}},{"scity":"桃園市","scityen":"Taoyuan City","sna":"YouBike2.0_中壢火車站(後站)","sarea":"中壢區","ar":"新興路68-94號對面人行道","snaen":"YouBike2.0_TRA Zhongli Station (Rear)","sareaen":"Zhongli Dist.","aren":"No.68 to No.94, Xinxing Rd. (opposite)","sno":"500304011","tot":"99","sbi":"23","mday":"20251125153003","lat":"24.95235","lng":"121.22433","bemp":"61","act":1,"sbi_detail":{"yb2":"21","eyb":"2"}},{"scity":"桃園市","scityen":"Taoyuan City","sna":"YouBike2.0_中正公園(元化路)","sarea":"中壢區","ar":"元化路197巷對面中正公園旁人行道","snaen":"YouBike2.0_Zhongzheng Park(Yuanhua Rd.)","sareaen":"Zhongli Dist.","aren":"Ln. 197, Yuanhua Rd. (opposite)","sno":"500304012","tot":"40","sbi":"11","mday":"20251125151802","lat":"24.96042","lng":"121.2273","bemp":"29","act":1,"sbi_detail":{"yb2":"9","eyb":"2"}},{"scity":"桃園市","scityen":"Taoyuan City","sna":"YouBike2.0_中壢區聯合辦公大樓","sarea":"中壢區","ar":"溪洲街298號前方人行道","snaen":"YouBike2.0_Zhongli District Joint Office Building","sareaen":"Zhongli Dist.","aren":"No.298, Xizhou St.","sno":"500304013","tot":"38","sbi":"2","mday":"20251125152802","lat":"24.96207","lng":"121.23003","bemp":"35","act":1,"sbi_detail":{"yb2":"2","eyb":"0"}},{"scity":"桃園市","scityen":"Taoyuan City","sna":"YouBike2.0_夢幻公園","sarea":"中壢區","ar":"榮安十三街榮民路口(西南側)","snaen":"YouBike2.0_Dream Park","sareaen":"Zhongli Dist.","aren":"Rongan 13th St./Rongmin Rd.","sno":"500304014","tot":"46","sbi":"6","mday":"20251125150003","lat":"24.962541","lng":"121.261596","bemp":"39","act":1,"sbi_detail":{"yb2":"4","eyb":"2"}},{"scity":"桃園市","scityen":"Taoyuan City","sna":"YouBike2.0_內壢自強公園","sarea":"中壢區","ar":"強國路46號旁自強公園側人行道","snaen":"YouBike2.0_Neili Ziqiang Park","sareaen":"Zhongli Dist.","aren":"No.46, Qiangguo Rd.","sno":"500304015","tot":"50","sbi":"6","mday":"20251125152602","lat":"24.96769","lng":"121.25928","bemp":"44","act":1,"sbi_detail":{"yb2":"5","eyb":"1"}},{"scity":"桃園市","scityen":"Taoyuan City","sna":"YouBike2.0_內壢復興公園","sarea":"中壢區","ar":"復華街191號對面復興公園旁人行道","snaen":"YouBike2.0_Neili Fuxing Park","sareaen":"Zhongli Dist.","aren":"No.191, Fuhua St. (opposite)","sno":"500304016","tot":"40","sbi":"29","mday":"20251125143902","lat":"24.97363","lng":"121.24811","bemp":"7","act":1,"sbi_detail":{"yb2":"24","eyb":"5"}},{"scity":"桃園市","scityen":"Taoyuan City","sna":"YouBike2.0_元智大學","sarea":"中壢區","ar":"遠東路135號(面元智大學左側人行道)","snaen":"YouBike2.0_Yuan Ze University","sareaen":"Zhongli Dist.","aren":"No.135, Yuandong Rd.","sno":"500304017","tot":"82","sbi":"30","mday":"20251125153003","lat":"24.97035","lng":"121.26325","bemp":"46","act":1,"sbi_detail":{"yb2":"25","eyb":"5"}},{"scity":"桃園市","scityen":"Taoyuan City","sna":"YouBike2.0_信義國小","sarea":"中壢區","ar":"成都路36號對面人行道","snaen":"YouBike2.0_Hsin Yi Elementary School","sareaen":"Zhongli Dist.","aren":"No.36, Chengdu Rd.(opposite)","sno":"500304018","tot":"30","sbi":"5","mday":"20251125153003","lat":"24.95102","lng":"121.23145","bemp":"24","act":1,"sbi_detail":{"yb2":"5","eyb":"0"}},{"scity":"桃園市","scityen":"Taoyuan City","sna":"YouBike2.0_莊敬廣場","sarea":"中壢區","ar":"莊敬路38-1號對面自行車停放區","snaen":"YouBike2.0_Zhuangjing Square","sareaen":"Zhongli Dist.","aren":"No.38-1, Zhuangjing Rd.(opposite)","sno":"500304019","tot":"70","sbi":"21","mday":"20251125152302","lat":"24.97185","lng":"121.25726","bemp":"44","act":1,"sbi_detail":{"yb2":"17","eyb":"4"}},{"scity":"桃園市","scityen":"Taoyuan City","sna":"YouBike2.0_吉林路吉利六街口","sarea":"中壢區","ar":"吉林路吉利六街口東南側人行道","snaen":"YouBike2.0_Jilin Rd. & Jili 6th St. Intersection","sareaen":"Zhongli Dist.","aren":"Jilin Rd./Jili 6th St.","sno":"500304020","tot":"42","sbi":"8","mday":"20251125143102","lat":"24.9829","lng":"121.25041","bemp":"34","act":1,"sbi_detail":{"yb2":"6","eyb":"2"}},{"scity":"桃園市","scityen":"Taoyuan City","sna":"YouBike2.0_龍岡森林公園","sarea":"中壢區","ar":"龍岡路三段289號對面龍岡森林公園旁人行道","snaen":"YouBike2.0_Longgang Park","sareaen":"Zhongli Dist.","aren":"No.289, Sec. 3, Longgang Rd.(opposite)","sno":"500304021","tot":"44","sbi":"3","mday":"20251125144102","lat":"24.93397","lng":"121.23592","bemp":"40","act":1,"sbi_detail":{"yb2":"3","eyb":"0"}},{"scity":"桃園市","scityen":"Taoyuan City","sna":"YouBike2.0_忠孝廣場","sarea":"中壢區","ar":"忠孝路8-22號對面路側","snaen":"YouBike2.0_Zongxiao Square","sareaen":"Zhongli Dist.","aren":"No.8-22, Zhongxiao Rd.(opposite)","sno":"500304022","tot":"50","sbi":"25","mday":"20251125153003","lat":"24.97252","lng":"121.25685","bemp":"12","act":1,"sbi_detail":{"yb2":"14","eyb":"11"}},{"scity":"桃園市","scityen":"Taoyuan City","sna":"YouBike2.0_忠福廣場","sarea":"中壢區","ar":"南園二路292號對面忠福廣場旁人行道","snaen":"YouBike2.0_Zhongfu Square","sareaen":"Zhongli Dist.","aren":"No.292, Nanyuan 2nd Rd.(opposite)","sno":"500304023","tot":"40","sbi":"3","mday":"20251125151503","lat":"24.971805","lng":"121.227697","bemp":"37","act":1,"sbi_detail":{"yb2":"2","eyb":"1"}},{"scity":"桃園市","scityen":"Taoyuan City","sna":"YouBike2.0_健行科技大學","sarea":"中壢區","ar":"健行路229號(商學大樓後人行道)","snaen":"YouBike2.0_Chien Hsin University of Science and Technology","sareaen":"Zhongli Dist.","aren":"No.229, Jianxing Rd.","sno":"500304024","tot":"66","sbi":"17","mday":"20251125151004","lat":"24.94678","lng":"121.22901","bemp":"49","act":1,"sbi_detail":{"yb2":"6","eyb":"11"}},{"scity":"桃園市","scityen":"Taoyuan City","sna":"YouBike2.0_啟英高中","sarea":"中壢區","ar":"西園路76號對面啟英高中旁人行道","snaen":"YouBike2.0_Chi-Ying Senior High School","sareaen":"Zhongli Dist.","aren":"No.76, Xiyuan Rd.(opposite)","sno":"500304025","tot":"50","sbi":"29","mday":"20251125094801","lat":"24.97561","lng":"121.234553","bemp":"16","act":1,"sbi_detail":{"yb2":"13","eyb":"16"}},{"scity":"桃園市","scityen":"Taoyuan City","sna":"YouBike2.0_內壢文化公園","sarea":"中壢區","ar":"文化路長春二路西北側公園旁人行道","snaen":"YouBike2.0_Neili Wenhua Park","sareaen":"Zhongli Dist.","aren":"Wenhua Rd./Changchun 2nd Rd.","sno":"500304026","tot":"42","sbi":"5","mday":"20251125153003","lat":"24.97957","lng":"121.2501","bemp":"36","act":1,"sbi_detail":{"yb2":"5","eyb":"0"}},{"scity":"桃園市","scityen":"Taoyuan City","sna":"YouBike2.0_萬能科技大學","sarea":"中壢區","ar":"萬能路1號(萬芳樓後方人行道)","snaen":"YouBike2.0_Vanung University of Technology","sareaen":"Zhongli Dist.","aren":"No.1, Changchun 2nd Rd.","sno":"500304027","tot":"60","sbi":"11","mday":"20251125152602","lat":"24.99275","lng":"121.22993","bemp":"49","act":1,"sbi_detail":{"yb2":"4","eyb":"7"}},{"scity":"桃園市","scityen":"Taoyuan City","sna":"YouBike2.0_環中東永福路口","sarea":"中壢區","ar":"環中東路325號前人行道","snaen":"YouBike2.0_Huanzhong E. & Yongfu Rd. Intersection","sareaen":"Zhongli Dist.","aren":"No.325, Huanzhong E. Rd.","sno":"500304028","tot":"44","sbi":"5","mday":"20251125151302","lat":"24.96203","lng":"121.25517","bemp":"39","act":1,"sbi_detail":{"yb2":"5","eyb":"0"}},{"scity":"桃園市","scityen":"Taoyuan City","sna":"YouBike2.0_五權公園","sarea":"中壢區","ar":"正大街五族二街西北側人行道","snaen":"YouBike2.0_Wuquan Park","sareaen":"Zhongli Dist.","aren":"Zhengda St./Wuzu 2nd St.","sno":"500304029","tot":"42","sbi":"4","mday":"20251125150602","lat":"24.958867","lng":"121.204579","bemp":"38","act":1,"sbi_detail":{"yb2":"2","eyb":"2"}},{"scity":"桃園市","scityen":"Taoyuan City","sna":"YouBike2.0_中壢新興公園","sarea":"中壢區","ar":"林森路90號前方人行道","snaen":"YouBike2.0_Zhongli Xinxing Park","sareaen":"Zhongli Dist.","aren":"No.90, Linsen Rd.","sno":"500304030","tot":"36","sbi":"9","mday":"20251125152004","lat":"24.94527","lng":"121.22605","bemp":"27","act":1,"sbi_detail":{"yb2":"8","eyb":"1"}},{"scity":"桃園市","scityen":"Taoyuan City","sna":"YouBike2.0_桃園市立圖書館內壢分館","sarea":"中壢區","ar":"光華三街10號前方人行道","snaen":"YouBike2.0_Taoyuan Public Library Neili Branch","sareaen":"Zhongli Dist.","aren":"No.10, Guanghua 3rd St.","sno":"500304031","tot":"50","sbi":"10","mday":"20251125152004","lat":"24.97795","lng":"121.25797","bemp":"40","act":1,"sbi_detail":{"yb2":"7","eyb":"3"}},{"scity":"桃園市","scityen":"Taoyuan City","sna":"YouBike2.0_中央大學依仁堂","sarea":"中壢區","ar":"中大路300號(松苑餐廳前方廣場)","snaen":"YouBike2.0_Office of Physical Education, NCU","sareaen":"Zhongli Dist.","aren":"No.300, Zhongda Rd.","sno":"500304032","tot":"61","sbi":"14","mday":"20251125152004","lat":"24.96712","lng":"121.19096","bemp":"45","act":1,"sbi_detail":{"yb2":"10","eyb":"4"}},{"scity":"桃園市","scityen":"Taoyuan City","sna":"YouBike2.0_桃園市立圖書館龍岡分館","sarea":"中壢區","ar":"台貿一街100號後方機車停車場","snaen":"YouBike2.0_Taoyuan Public Library Longgang Branch","sareaen":"Zhongli Dist.","aren":"No.100, Taimao 1st St.","sno":"500304033","tot":"34","sbi":"0","mday":"20251125152717","lat":"24.93794","lng":"121.25583","bemp":"34","act":1,"sbi_detail":{"yb2":"0","eyb":"0"}},{"scity":"桃園市","scityen":"Taoyuan City","sna":"YouBike2.0_捷運高鐵桃園站(A18)","sarea":"中壢區","ar":"高鐵北路一段6號(對面捷運站出口外側人行道)","snaen":"YouBike2.0_MRT HSR Taoyuan Station (A18)","sareaen":"Zhongli Dist.","aren":"No.6, Sec. 1, Gaotie N. Rd.(opposite)","sno":"500304034","tot":"62","sbi":"39","mday":"20251125151004","lat":"25.01378","lng":"121.21393","bemp":"18","act":1,"sbi_detail":{"yb2":"38","eyb":"1"}},{"scity":"桃園市","scityen":"Taoyuan City","sna":"YouBike2.0_捷運桃園體育園區站(A19)","sarea":"中壢區","ar":"高鐵南路二段369號對面人行道","snaen":"YouBike2.0_MRT Taoyuan Sports Park Station (A19)","sareaen":"Zhongli Dist.","aren":"No.369, Sec. 2, Gaotie S. Rd.(opposite)","sno":"500304035","tot":"29","sbi":"3","mday":"20251125153003","lat":"25.00157","lng":"121.20278","bemp":"26","act":1,"sbi_detail":{"yb2":"3","eyb":"0"}},{"scity":"桃園市","scityen":"Taoyuan City","sna":"YouBike2.0_捷運環北站(A21)","sarea":"中壢區","ar":"中豐北路26號旁人行道","snaen":"YouBike2.0_MRT Huanbei Station (A21)","sareaen":"Zhongli Dist.","aren":"No.26, Zhongfeng N. Rd.","sno":"500304036","tot":"40","sbi":"30","mday":"20251125152004","lat":"24.96756","lng":"121.22097","bemp":"10","act":1,"sbi_detail":{"yb2":"22","eyb":"8"}},{"scity":"桃園市","scityen":"Taoyuan City","sna":"YouBike2.0_青埔國中","sarea":"中壢區","ar":"領航北路二段281號前方人行道","snaen":"YouBike2.0_Qing Pu Junior High School","sareaen":"Zhongli Dist.","aren":"No.281, Sec. 2, Linghang N. Rd.","sno":"500304037","tot":"36","sbi":"10","mday":"20251125150003","lat":"25.01083","lng":"121.2058","bemp":"26","act":1,"sbi_detail":{"yb2":"8","eyb":"2"}},{"scity":"桃園市","scityen":"Taoyuan City","sna":"YouBike2.0_領航公園","sarea":"中壢區","ar":"領航北路一段永裕路口北側公園旁人行道","snaen":"YouBike2.0_Linghang Park","sareaen":"Zhongli Dist.","aren":"Sec. 1, Linghang N. Rd./Yongyu Rd.","sno":"500304038","tot":"38","sbi":"3","mday":"20251125143003","lat":"25.00741","lng":"121.20105","bemp":"33","act":1,"sbi_detail":{"yb2":"3","eyb":"0"}},{"scity":"桃園市","scityen":"Taoyuan City","sna":"YouBike2.0_仁祥公園","sarea":"中壢區","ar":"華祥一街3巷2號對面公園旁人行道","snaen":"YouBike2.0_Renxiang Park","sareaen":"Zhongli Dist.","aren":"No.2, Ln. 3, Huaxiang 1st St.(opposite)","sno":"500304039","tot":"38","sbi":"2","mday":"20251125143602","lat":"24.948864","lng":"121.260842","bemp":"36","act":1,"sbi_detail":{"yb2":"2","eyb":"0"}},{"scity":"桃園市","scityen":"Taoyuan City","sna":"YouBike2.0_篤行公園","sarea":"中壢區","ar":"永福路47號對面人行道","snaen":"YouBike2.0_Duxing Park","sareaen":"Zhongli Dist.","aren":"No.47, Yongfu Rd.(opposite)","sno":"500304040","tot":"34","sbi":"0","mday":"20251125152918","lat":"24.958288","lng":"121.26328","bemp":"34","act":1,"sbi_detail":{"yb2":"0","eyb":"0"}},{"scity":"桃園市","scityen":"Taoyuan City","sna":"YouBike2.0_甲蟲公園","sarea":"中壢區","ar":"元生二街元生三街口西北側公園旁人行道","snaen":"YouBike2.0_Jiachong Park","sareaen":"Zhongli Dist.","aren":"Yuansheng 2nd St./Yuansheng 3rd St.","sno":"500304041","tot":"36","sbi":"10","mday":"20251125144202","lat":"24.97754","lng":"121.25275","bemp":"26","act":1,"sbi_detail":{"yb2":"7","eyb":"3"}},{"scity":"桃園市","scityen":"Taoyuan City","sna":"YouBike2.0_中壢中央公園","sarea":"中壢區","ar":"建國北路9號對面公園人行道","snaen":"YouBike2.0_Zhongli Central Park","sareaen":"Zhongli Dist.","aren":"No.9, Jianguo N. Rd.(opposite)","sno":"500304042","tot":"57","sbi":"7","mday":"20251125152602","lat":"24.95666","lng":"121.2262","bemp":"47","act":1,"sbi_detail":{"yb2":"4","eyb":"3"}},{"scity":"桃園市","scityen":"Taoyuan City","sna":"YouBike2.0_黎明公園","sarea":"中壢區","ar":"同慶路榮民南路口西南側公園前方路側","snaen":"YouBike2.0_Liming Park","sareaen":"Zhongli Dist.","aren":"Tongqing Rd./Rongmin S. Rd.","sno":"500304043","tot":"30","sbi":"0","mday":"20251125151515","lat":"24.93989","lng":"121.25613","bemp":"30","act":1,"sbi_detail":{"yb2":"0","eyb":"0"}},{"scity":"桃園市","scityen":"Taoyuan City","sna":"YouBike2.0_興仁公園","sarea":"中壢區","ar":"興仁路二段120號對面公園內人行道","snaen":"YouBike2.0_Xinren Park","sareaen":"Zhongli Dist.","aren":"No.120, Sec. 2, Xingren Rd.(opposite)","sno":"500304044","tot":"48","sbi":"4","mday":"20251125153003","lat":"24.96626","lng":"121.26355","bemp":"44","act":1,"sbi_detail":{"yb2":"1","eyb":"3"}},{"scity":"桃園市","scityen":"Taoyuan City","sna":"YouBike2.0_自立新村(榮安一街)","sarea":"中壢區","ar":"榮安一街自立三街2巷北側人行道","snaen":"YouBike2.0_Zili Community (Rong'an 1st St.)","sareaen":"Zhongli Dist.","aren":"Rong'an 1st St./Ln. 2, Zili 3rd St.","sno":"500304045","tot":"40","sbi":"4","mday":"20251125151802","lat":"24.96543","lng":"121.25338","bemp":"36","act":1,"sbi_detail":{"yb2":"3","eyb":"1"}},{"scity":"桃園市","scityen":"Taoyuan City","sna":"YouBike2.0_晉元路仁德一街口","sarea":"中壢區","ar":"仁德一街28-4號對面路側","snaen":"YouBike2.0_Jinyuan Rd. & Rende 1st St. Intersection","sareaen":"Zhongli Dist.","aren":"No.28-4, Rende 1st St.(opposite)","sno":"500304046","tot":"30","sbi":"2","mday":"20251125151402","lat":"24.950926","lng":"121.261293","bemp":"28","act":1,"sbi_detail":{"yb2":"1","eyb":"1"}},{"scity":"桃園市","scityen":"Taoyuan City","sna":"YouBike2.0_龍和公園","sarea":"中壢區","ar":"龍和三街290號(活動中心旁公園人行道)","snaen":"YouBike2.0_Longhe Park","sareaen":"Zhongli Dist.","aren":"No.290, Longhe 3rd St.","sno":"500304047","tot":"32","sbi":"2","mday":"20251125141202","lat":"24.93422","lng":"121.24481","bemp":"30","act":1,"sbi_detail":{"yb2":"1","eyb":"1"}},{"scity":"桃園市","scityen":"Taoyuan City","sna":"YouBike2.0_紫雲宮","sarea":"中壢區","ar":"自忠二街126號對面停車場","snaen":"YouBike2.0_Ziyun Temple","sareaen":"Zhongli Dist.","aren":"No.126, Zizhong 2nd St.(opposite)","sno":"500304048","tot":"34","sbi":"1","mday":"20251125144115","lat":"24.94485","lng":"121.22283","bemp":"33","act":1,"sbi_detail":{"yb2":"1","eyb":"0"}},{"scity":"桃園市","scityen":"Taoyuan City","sna":"YouBike2.0_常樂公園","sarea":"中壢區","ar":"文化二路237-243號旁公園人行道","snaen":"YouBike2.0_Changle Park","sareaen":"Zhongli Dist.","aren":"No.237-243, Wenhua 2nd Rd.","sno":"500304049","tot":"40","sbi":"2","mday":"20251125145002","lat":"24.97688","lng":"121.25086","bemp":"37","act":1,"sbi_detail":{"yb2":"2","eyb":"0"}},{"scity":"桃園市","scityen":"Taoyuan City","sna":"YouBike2.0_金鋒太子","sarea":"中壢區","ar":"金鋒四街50巷2號對面","snaen":"YouBike2.0_Jinfeng Prince","sareaen":"Zhongli Dist.","aren":"No.2, Ln. 50, Jinfeng 4th St.(opposite)","sno":"500304050","tot":"30","sbi":"6","mday":"20251125111002","lat":"24.94591","lng":"121.24863","bemp":"24","act":1,"sbi_detail":{"yb2":"6","eyb":"0"}},{"scity":"桃園市","scityen":"Taoyuan City","sna":"YouBike2.0_華愛兒童公園","sarea":"中壢區","ar":"華愛街35號對面公園旁人行道","snaen":"YouBike2.0_Hua-Ai Children's Park","sareaen":"Zhongli Dist.","aren":"No.35, Hua’ai St.(opposite)","sno":"500304051","tot":"32","sbi":"1","mday":"20251125151719","lat":"24.952303","lng":"121.259724","bemp":"30","act":1,"sbi_detail":{"yb2":"1","eyb":"0"}},{"scity":"桃園市","scityen":"Taoyuan City","sna":"YouBike2.0_過嶺國中","sarea":"中壢區","ar":"松智路過嶺路一段路口人行道","snaen":"YouBike2.0_Guo Ling Junior High School","sareaen":"Zhongli Dist.","aren":"Songzhi Rd./Sec. 1, Guoling Rd.","sno":"500304052","tot":"30","sbi":"13","mday":"20251125065005","lat":"24.9602","lng":"121.17552","bemp":"16","act":1,"sbi_detail":{"yb2":"12","eyb":"1"}},{"scity":"桃園市","scityen":"Taoyuan City","sna":"YouBike2.0_南方莊園","sarea":"中壢區","ar":"樹籽路8號對面停車場旁人行道","snaen":"YouBike2.0_Nanfang Park","sareaen":"Zhongli Dist.","aren":"No.8, Shuzi Rd.(opposite)","sno":"500304053","tot":"16","sbi":"3","mday":"20251125062702","lat":"24.96728","lng":"121.17791","bemp":"13","act":1,"sbi_detail":{"yb2":"0","eyb":"3"}},{"scity":"桃園市","scityen":"Taoyuan City","sna":"YouBike2.0_南亞技術學院","sarea":"中壢區","ar":"中山東路三段414號內機車停車場","snaen":"YouBike2.0_Nanya Institute of Technology","sareaen":"Zhongli Dist.","aren":"No.414, Sec. 3, Zhongshan E. Rd.","sno":"500304054","tot":"32","sbi":"2","mday":"20251125150602","lat":"24.93756","lng":"121.25171","bemp":"30","act":1,"sbi_detail":{"yb2":"2","eyb":"0"}},{"scity":"桃園市","scityen":"Taoyuan City","sna":"YouBike2.0_華勛公園","sarea":"中壢區","ar":"華仁街68巷34號對面公園","snaen":"YouBike2.0_Huaxun Park","sareaen":"Zhongli Dist.","aren":"No.34, Ln. 68, Huaren St.(opposite)","sno":"500304055","tot":"35","sbi":"6","mday":"20251125060702","lat":"24.946622","lng":"121.261741","bemp":"29","act":1,"sbi_detail":{"yb2":"5","eyb":"1"}},{"scity":"桃園市","scityen":"Taoyuan City","sna":"YouBike2.0_青塘園","sarea":"中壢區","ar":"洽溪路133號對面公園人行道","snaen":"YouBike2.0_Qingtang Garden","sareaen":"Zhongli Dist.","aren":"No.133, Qiaxi Rd. (oppsite)","sno":"500304056","tot":"47","sbi":"0","mday":"20251125152615","lat":"25.00641","lng":"121.20492","bemp":"46","act":1,"sbi_detail":{"yb2":"0","eyb":"0"}},{"scity":"桃園市","scityen":"Taoyuan City","sna":"YouBike2.0_大江購物中心","sarea":"中壢區","ar":"中園路二段501號前方人行道","snaen":"YouBike2.0_Metrowalk","sareaen":"Zhongli Dist.","aren":"No.501, Sec. 2, Zhongyuan Rd.","sno":"500304057","tot":"44","sbi":"6","mday":"20251125152302","lat":"25.00127","lng":"121.22939","bemp":"38","act":1,"sbi_detail":{"yb2":"5","eyb":"1"}},{"scity":"桃園市","scityen":"Taoyuan City","sna":"YouBike2.0_老街溪河川教育中心","sarea":"中壢區","ar":"中原路58號前方人行道","snaen":"YouBike2.0_LaoJier River Education Center","sareaen":"Zhongli Dist.","aren":"No.58, Gongxue Rd.","sno":"500304058","tot":"36","sbi":"21","mday":"20251125094004","lat":"24.95374","lng":"121.21856","bemp":"10","act":1,"sbi_detail":{"yb2":"17","eyb":"4"}},{"scity":"桃園市","scityen":"Taoyuan City","sna":"YouBike2.0_龍岡圓環","sarea":"中壢區","ar":"龍東路龍岡路三段路口","snaen":"YouBike2.0_Longgang Roundabout","sareaen":"Zhongli Dist.","aren":"Longdong Rd./Sec. 3, Longgang Rd.","sno":"500304059","tot":"30","sbi":"4","mday":"20251125093004","lat":"24.926002","lng":"121.244046","bemp":"25","act":1,"sbi_detail":{"yb2":"2","eyb":"2"}},{"scity":"桃園市","scityen":"Taoyuan City","sna":"YouBike2.0_內厝社區活動中心","sarea":"中壢區","ar":"中正路四段112號前方路側","snaen":"YouBike2.0_Neicuo Activity Center","sareaen":"Zhongli Dist.","aren":"No.112, Sec. 4, Zhongzheng Rd.","sno":"500304060","tot":"25","sbi":"1","mday":"20251125143615","lat":"24.98932","lng":"121.17943","bemp":"23","act":1,"sbi_detail":{"yb2":"1","eyb":"0"}},{"scity":"桃園市","scityen":"Taoyuan City","sna":"YouBike2.0_龍岡大操場","sarea":"中壢區","ar":"龍岡路三段游泳路口旁公園人行道","snaen":"YouBike2.0_Longgang Playground","sareaen":"Zhongli Dist.","aren":"Sec. 3, Longgang Rd./Youyong Rd.","sno":"500304061","tot":"30","sbi":"4","mday":"20251125142004","lat":"24.930164","lng":"121.239605","bemp":"26","act":1,"sbi_detail":{"yb2":"3","eyb":"1"}},{"scity":"桃園市","scityen":"Taoyuan City","sna":"YouBike2.0_普忠路770巷口","sarea":"中壢區","ar":"普忠路605號對面人行道","snaen":"YouBike2.0_Ln. 770, Puzhong Rd.","sareaen":"Zhongli Dist.","aren":"No.605, Puzhong Rd.(opposite)","sno":"500304062","tot":"32","sbi":"3","mday":"20251125151603","lat":"24.954231","lng":"121.251253","bemp":"29","act":1,"sbi_detail":{"yb2":"1","eyb":"2"}},{"scity":"桃園市","scityen":"Taoyuan City","sna":"YouBike2.0_青埔國小","sarea":"中壢區","ar":"新生路四段127號對面人行道","snaen":"YouBike2.0_Qingpu Elementary School","sareaen":"Zhongli Dist.","aren":"No.127, Sec. 4, Sinsheng Rd.(opposite)","sno":"500304063","tot":"34","sbi":"1","mday":"20251125153117","lat":"25.00662","lng":"121.21368","bemp":"33","act":1,"sbi_detail":{"yb2":"1","eyb":"0"}},{"scity":"桃園市","scityen":"Taoyuan City","sna":"YouBike2.0_公七公園","sarea":"中壢區","ar":"青商路288-298斜對面公園內","snaen":"YouBike2.0_Gongqi Park","sareaen":"Zhongli Dist.","aren":"No.288, Qingshang Rd.","sno":"500304064","tot":"55","sbi":"5","mday":"20251125144004","lat":"25.008599","lng":"121.219904","bemp":"48","act":1,"sbi_detail":{"yb2":"4","eyb":"1"}},{"scity":"桃園市","scityen":"Taoyuan City","sna":"YouBike2.0_至善綠園","sarea":"中壢區","ar":"龍昌路32號對面公園","snaen":"YouBike2.0_Zhishan Greens","sareaen":"Zhongli Dist.","aren":"No.32, Longchang Rd.(opposite)","sno":"500304065","tot":"32","sbi":"2","mday":"20251125144602","lat":"24.94035","lng":"121.24995","bemp":"30","act":1,"sbi_detail":{"yb2":"0","eyb":"2"}},{"scity":"桃園市","scityen":"Taoyuan City","sna":"YouBike2.0_中鑄公園","sarea":"中壢區","ar":"中華路一段619巷31號對面公園","snaen":"YouBike2.0_Zhongzhu Park","sareaen":"Zhongli Dist.","aren":"No.31, Ln. 619, Sec. 1, Zhonghua Rd.","sno":"500304066","tot":"32","sbi":"14","mday":"20251125151503","lat":"24.96853","lng":"121.25065","bemp":"18","act":1,"sbi_detail":{"yb2":"13","eyb":"1"}},{"scity":"桃園市","scityen":"Taoyuan City","sna":"YouBike2.0_大全聯中壢店","sarea":"中壢區","ar":"中北路二段468號南側人行道","snaen":"YouBike2.0_MEGA PX MART Zhongli Store","sareaen":"Zhongli Dist.","aren":"No. 468, Section 2, Zhongbei Road.","sno":"500304067","tot":"65","sbi":"12","mday":"20251125152602","lat":"24.95525","lng":"121.23484","bemp":"51","act":1,"sbi_detail":{"yb2":"9","eyb":"3"}},{"scity":"桃園市","scityen":"Taoyuan City","sna":"YouBike2.0_龍興國中","sarea":"中壢區","ar":"龍勇路100號前方人行道","snaen":"YouBike2.0_Longxing Junior High School","sareaen":"Zhongli Dist.","aren":"No.100, Longyong Rd.","sno":"500304068","tot":"40","sbi":"32","mday":"20251125153003","lat":"24.93784","lng":"121.23638","bemp":"8","act":1,"sbi_detail":{"yb2":"18","eyb":"14"}},{"scity":"桃園市","scityen":"Taoyuan City","sna":"YouBike2.0_竹風青田","sarea":"中壢區","ar":"永園路一段130號前方人行道","snaen":"YouBike2.0_TrueFull QingTian","sareaen":"Zhongli Dist.","aren":"No.130, Yongyuan Rd.","sno":"500304069","tot":"28","sbi":"4","mday":"20251125151802","lat":"25.0115","lng":"121.20184","bemp":"24","act":1,"sbi_detail":{"yb2":"3","eyb":"1"}},{"scity":"桃園市","scityen":"Taoyuan City","sna":"YouBike2.0_龍安里集會所","sarea":"中壢區","ar":"龍江路99號前方廣場","snaen":"YouBike2.0_Longan Activity Center","sareaen":"Zhongli Dist.","aren":"No.99, Longjiang Rd.","sno":"500304070","tot":"32","sbi":"9","mday":"20251125151802","lat":"24.93149","lng":"121.25766","bemp":"23","act":1,"sbi_detail":{"yb2":"9","eyb":"0"}},{"scity":"桃園市","scityen":"Taoyuan City","sna":"YouBike2.0_中壢仁德公園","sarea":"中壢區","ar":"崁頂路崁頂路1401巷口旁人行道","snaen":"YouBike2.0_Zhongli Rende Park","sareaen":"Zhongli Dist.","aren":"Ln. 1401, Kanding Rd./Kanding Rd.","sno":"500304071","tot":"15","sbi":"4","mday":"20251125152802","lat":"24.953347","lng":"121.266529","bemp":"10","act":1,"sbi_detail":{"yb2":"2","eyb":"2"}},{"scity":"桃園市","scityen":"Taoyuan City","sna":"YouBike2.0_龍慈路後寮一路口","sarea":"中壢區","ar":"龍慈路227號(前)","snaen":"YouBike2.0_Longci & Houliao 1st Rd","sareaen":"Zhongli Dist.","aren":"No. 227, Longci Rd.","sno":"500304072","tot":"40","sbi":"5","mday":"20251125153003","lat":"24.941207","lng":"121.245130","bemp":"35","act":1,"sbi_detail":{"yb2":"3","eyb":"2"}},{"scity":"桃園市","scityen":"Taoyuan City","sna":"YouBike2.0_功學社新村","sarea":"中壢區","ar":"功學路156號前方空地","snaen":"YouBike2.0_Gongxueshexincun","sareaen":"Zhongli Dist.","aren":"No.156, Gongxue Rd.","sno":"500304073","tot":"30","sbi":"1","mday":"20251125135715","lat":"24.954173","lng":"121.256291","bemp":"29","act":1,"sbi_detail":{"yb2":"0","eyb":"1"}},{"scity":"桃園市","scityen":"Taoyuan City","sna":"YouBike2.0_六和兒童公園","sarea":"中壢區","ar":"六和路55號對面公園","snaen":"YouBike2.0_Liuhe Children's Park","sareaen":"Zhongli Dist.","aren":"No.55, Liouhe Rd.(opposite)","sno":"500304074","tot":"31","sbi":"2","mday":"20251125144202","lat":"24.96364","lng":"121.22458","bemp":"29","act":1,"sbi_detail":{"yb2":"2","eyb":"0"}},{"scity":"桃園市","scityen":"Taoyuan City","sna":"YouBike2.0_普忠榮民南路口","sarea":"中壢區","ar":"普忠路1168號前","snaen":"YouBike2.0_Puzhong & Rongmin S. Rd. Intersection","sareaen":"Zhongli Dist.","aren":"No. 1168, Puzhong Rd.","sno":"500304075","tot":"32","sbi":"7","mday":"20251125152802","lat":"24.949502","lng":"121.256339","bemp":"25","act":1,"sbi_detail":{"yb2":"3","eyb":"4"}},{"scity":"桃園市","scityen":"Taoyuan City","sna":"YouBike2.0_龍岡停車場","sarea":"中壢區","ar":"龍文三街/龍東路口(西側)","snaen":"YouBike2.0_Longgang Parking Lot","sareaen":"Zhongli Dist.","aren":"Longwen 3rd St. & Longdong Rd. Intersection(West)","sno":"500304076","tot":"40","sbi":"6","mday":"20251125145002","lat":"24.930088","lng":"121.253064","bemp":"25","act":1,"sbi_detail":{"yb2":"0","eyb":"6"}},{"scity":"桃園市","scityen":"Taoyuan City","sna":"YouBike2.0_莒光公園(環中東路)","sarea":"中壢區","ar":"環中東路二段288號前","snaen":"YouBike2.0_Juguang Park (Huanzhong E. Rd.)","sareaen":"Zhongli Dist.","aren":"No. 288, Sec. 2, Huanzhong E. Rd.","sno":"500304077","tot":"33","sbi":"0","mday":"20251125152018","lat":"24.94894","lng":"121.23597","bemp":"32","act":1,"sbi_detail":{"yb2":"0","eyb":"0"}},{"scity":"桃園市","scityen":"Taoyuan City","sna":"YouBike2.0_環中東實踐路口","sarea":"中壢區","ar":"環中東路776號前","snaen":"YouBike2.0_Huanzhong E. & Shijian Rd. Intersection","sareaen":"Zhongli Dist.","aren":"No. 776, Huanzhong E. Rd.","sno":"500304078","tot":"40","sbi":"3","mday":"20251125152302","lat":"24.95368","lng":"121.24334","bemp":"36","act":1,"sbi_detail":{"yb2":"2","eyb":"1"}},{"scity":"桃園市","scityen":"Taoyuan City","sna":"YouBike2.0_新明國中","sarea":"中壢區","ar":"民族路109號(對側)","snaen":"YouBike2.0_Hsin Ming Junior High School","sareaen":"Zhongli Dist.","aren":"No. 109, Minzu Rd.(Opposite)","sno":"500304079","tot":"38","sbi":"3","mday":"20251125152802","lat":"24.95621","lng":"121.21231","bemp":"35","act":1,"sbi_detail":{"yb2":"3","eyb":"0"}},{"scity":"桃園市","scityen":"Taoyuan City","sna":"YouBike2.0_中華路一段文化二路口","sarea":"中壢區","ar":"中華路一段480號前","snaen":"YouBike2.0_Sec. 1, Zhonghua Rd. & Wenhua 2nd Rd. Intersection","sareaen":"Zhongli Dist.","aren":"No. 480, Sec. 1, Zhonghua Rd.","sno":"500304080","tot":"50","sbi":"16","mday":"20251125152215","lat":"24.97093","lng":"121.25355","bemp":"21","act":1,"sbi_detail":{"yb2":"10","eyb":"6"}},{"scity":"桃園市","scityen":"Taoyuan City","sna":"YouBike2.0_過嶺廣場","sarea":"中壢區","ar":"松勤路13號(對側)","snaen":"YouBike2.0_Guoling Square","sareaen":"Zhongli Dist.","aren":"No. 13, Songqin Rd.(Opposite)","sno":"500304081","tot":"32","sbi":"9","mday":"20251125072003","lat":"24.96035","lng":"121.16451","bemp":"21","act":1,"sbi_detail":{"yb2":"4","eyb":"5"}},{"scity":"桃園市","scityen":"Taoyuan City","sna":"YouBike2.0_中壢公15公園","sarea":"中壢區","ar":"領航南路一段/文德路口(東南側)","snaen":"YouBike2.0_Zhongli Public 15th Park","sareaen":"Zhongli Dist.","aren":"Sec. 1, Linghang S. Rd. & Wende Rd. Intersection(Southeast)","sno":"500304082","tot":"31","sbi":"6","mday":"20251125143902","lat":"25.00053","lng":"121.2079","bemp":"23","act":1,"sbi_detail":{"yb2":"5","eyb":"1"}},{"scity":"桃園市","scityen":"Taoyuan City","sna":"YouBike2.0_新街國小","sarea":"中壢區","ar":"環北路564號旁步道","snaen":"YouBike2.0_Shin Jie Elementary School","sareaen":"Zhongli Dist.","aren":"No.564, Huanbei Rd.","sno":"500304083","tot":"40","sbi":"2","mday":"20251125152802","lat":"24.96438","lng":"121.22873","bemp":"38","act":1,"sbi_detail":{"yb2":"1","eyb":"1"}},{"scity":"桃園市","scityen":"Taoyuan City","sna":"YouBike2.0_福州橋","sarea":"中壢區","ar":"福州二街513號對面步道","snaen":"YouBike2.0_Fuzhou Bridge","sareaen":"Zhongli Dist.","aren":"No.513, Fujhou 2nd St.(opposite)","sno":"500304084","tot":"34","sbi":"2","mday":"20251125141004","lat":"24.96830","lng":"121.23478","bemp":"32","act":1,"sbi_detail":{"yb2":"1","eyb":"1"}},{"scity":"桃園市","scityen":"Taoyuan City","sna":"YouBike2.0_高鐵桃園站(3號出口)","sarea":"中壢區","ar":"高鐵北路一段6號前人行道","snaen":"YouBike2.0_HSR  Taoyuan Station (Exit.3)","sareaen":"Zhongli Dist.","aren":"HSR Taoyuan Station (Exit.3)","sno":"500304085","tot":"81","sbi":"42","mday":"20251125153003","lat":"25.01242","lng":"121.21522","bemp":"35","act":1,"sbi_detail":{"yb2":"38","eyb":"4"}},{"scity":"桃園市","scityen":"Taoyuan City","sna":"YouBike2.0_老街溪環河步道(環北路)","sarea":"中壢區","ar":"環北路92號旁公園","snaen":"YouBike2.0_Laojiexi Huanhe Trail (Huanbei Rd.)","sareaen":"Zhongli Dist.","aren":"No.92, Huanbei Rd.","sno":"500304086","tot":"32","sbi":"7","mday":"20251125144303","lat":"24.9661","lng":"121.21933","bemp":"25","act":1,"sbi_detail":{"yb2":"7","eyb":"0"}},{"scity":"桃園市","scityen":"Taoyuan City","sna":"YouBike2.0_忠孝黃昏市場","sarea":"中壢區","ar":"吉利七街65號旁綠地","snaen":"YouBike2.0_Zhongxiao Dusk Market","sareaen":"Zhongli Dist.","aren":"No.65, Jili 7th St.","sno":"500304087","tot":"36","sbi":"9","mday":"20251125151802","lat":"24.98226","lng":"121.25297","bemp":"27","act":1,"sbi_detail":{"yb2":"8","eyb":"1"}},{"scity":"桃園市","scityen":"Taoyuan City","sna":"YouBike2.0_廣明停車場","sarea":"中壢區","ar":"廣明路78號旁停車場","snaen":"YouBike2.0_Guangming Parking Lot","sareaen":"Zhongli Dist.","aren":"No.78, Guangming Rd.","sno":"500304088","tot":"32","sbi":"1","mday":"20251125144202","lat":"24.95458","lng":"121.21406","bemp":"31","act":1,"sbi_detail":{"yb2":"1","eyb":"0"}},{"scity":"桃園市","scityen":"Taoyuan City","sna":"YouBike2.0_高鐵北青昇二街口","sarea":"中壢區","ar":"高鐵北路二段96號旁公園","snaen":"YouBike2.0_Gaotie N. Rd. & Qingsheng 2nd St. Intersection","sareaen":"Zhongli Dist.","aren":"No.96, Sec. 2, Gaotie N. Rd.","sno":"500304089","tot":"31","sbi":"2","mday":"20251125150003","lat":"25.01804","lng":"121.22033","bemp":"28","act":1,"sbi_detail":{"yb2":"2","eyb":"0"}},{"scity":"桃園市","scityen":"Taoyuan City","sna":"YouBike2.0_竹風青庭","sarea":"中壢區","ar":"領航北路一段296號前方人行道","snaen":"YouBike2.0_TrueFull QingTing","sareaen":"Zhongli Dist.","aren":"No.296, Sec. 1, Linghang N. Rd.","sno":"500304090","tot":"30","sbi":"2","mday":"20251125142902","lat":"25.00604","lng":"121.20138","bemp":"28","act":1,"sbi_detail":{"yb2":"2","eyb":"0"}},{"scity":"桃園市","scityen":"Taoyuan City","sna":"YouBike2.0_青埔公10公園","sarea":"中壢區","ar":"永昌路/永昌一路口(南側)","snaen":"YouBike2.0_Qingpu Public 10th  Park","sareaen":"Zhongli Dist.","aren":"Yongchang Rd. & Yongchang 1st Rd. Intersection(South)","sno":"500304091","tot":"40","sbi":"3","mday":"20251125142004","lat":"25.0144","lng":"121.20756","bemp":"36","act":1,"sbi_detail":{"yb2":"3","eyb":"0"}},{"scity":"桃園市","scityen":"Taoyuan City","sna":"YouBike2.0_玖都機構","sarea":"中壢區","ar":"公園路一段文發路口(土地公廟前)","snaen":"YouBike2.0_Jiudu Institution","sareaen":"Zhongli Dist.","aren":"Sec. 1, Gongyuan Rd. & Wenfa Rd. Intersection","sno":"500304092","tot":"32","sbi":"1","mday":"20251125151616","lat":"25.005","lng":"121.20865","bemp":"31","act":1,"sbi_detail":{"yb2":"1","eyb":"0"}},{"scity":"桃園市","scityen":"Taoyuan City","sna":"YouBike2.0_天翔社區","sarea":"中壢區","ar":"華美三路353號前人行道","snaen":"YouBike2.0_Tian Xiang Station","sareaen":"Zhongli Dist.","aren":"No.353, Huamei 3rd Rd.","sno":"500304093","tot":"30","sbi":"4","mday":"20251125104003","lat":"24.946126","lng":"121.258832","bemp":"25","act":1,"sbi_detail":{"yb2":"4","eyb":"0"}},{"scity":"桃園市","scityen":"Taoyuan City","sna":"YouBike2.0_中壢區殯葬服務中心","sarea":"中壢區","ar":"培英路289號前人行道","snaen":"YouBike2.0_Office of Funeral Services,Zhongli","sareaen":"Zhongli Dist.","aren":"No.289, Peiying Rd.","sno":"500304094","tot":"15","sbi":"5","mday":"20251125150003","lat":"24.976932","lng":"121.227558","bemp":"8","act":1,"sbi_detail":{"yb2":"5","eyb":"0"}},{"scity":"桃園市","scityen":"Taoyuan City","sna":"YouBike2.0_健行科技大學民設學院","sarea":"中壢區","ar":"衡陽街93號對面停車場","snaen":"YouBike2.0_College of Human Ecology and Design(UCH)","sareaen":"Zhongli Dist.","aren":"No.93, Hengyang St.(opposite)","sno":"500304095","tot":"50","sbi":"24","mday":"20251125152802","lat":"24.94933","lng":"121.22901","bemp":"22","act":1,"sbi_detail":{"yb2":"15","eyb":"9"}},{"scity":"桃園市","scityen":"Taoyuan City","sna":"YouBike2.0_老街溪河岸廣場","sarea":"中壢區","ar":"中美路二段192號旁廣場","snaen":"YouBike2.0_Laojie Creek Riverside Square","sareaen":"Zhongli Dist.","aren":"No.192, Sec. 2, Jhongmei Rd.","sno":"500304096","tot":"32","sbi":"2","mday":"20251125142102","lat":"24.96027","lng":"121.2191","bemp":"30","act":1,"sbi_detail":{"yb2":"2","eyb":"0"}},{"scity":"桃園市","scityen":"Taoyuan City","sna":"YouBike2.0_中壢藝術館","sarea":"中壢區","ar":"中美路31號對面人行道","snaen":"YouBike2.0_Zhongli Arts Hall","sareaen":"Zhongli Dist.","aren":"No.31, Zhongmei Rd. (opposite)","sno":"500304097","tot":"52","sbi":"6","mday":"20251125145002","lat":"24.95823","lng":"121.22700","bemp":"45","act":1,"sbi_detail":{"yb2":"5","eyb":"1"}},{"scity":"桃園市","scityen":"Taoyuan City","sna":"YouBike2.0_同心公園","sarea":"中壢區","ar":"青埔六街/青埔三街口(東南側)","snaen":"YouBike2.0_Tongxin Park","sareaen":"Zhongli Dist.","aren":"Qingbu 6th St./Qingbu 3rd St. intersection. (Southeast)","sno":"500304098","tot":"34","sbi":"5","mday":"20251125151004","lat":"25.00485","lng":"121.21889","bemp":"29","act":1,"sbi_detail":{"yb2":"3","eyb":"2"}},{"scity":"桃園市","scityen":"Taoyuan City","sna":"YouBike2.0_捷運老街溪站(A22)","sarea":"中壢區","ar":"中豐路/中央西路一段西側人行道","snaen":"YouBike2.0_MRT Laojie River Station (A22)","sareaen":"Zhongli Dist.","aren":"Zhongfeng Rd. & Sec. 1, Zhongyang W. Rd. Intersection","sno":"500304099","tot":"61","sbi":"21","mday":"20251125153117","lat":"24.95826","lng":"121.2193","bemp":"34","act":1,"sbi_detail":{"yb2":"10","eyb":"11"}},{"scity":"桃園市","scityen":"Taoyuan City","sna":"YouBike2.0_良茂詠恆","sarea":"中壢區","ar":"領航南路二段350~396號前","snaen":"YouBike2.0_LM Qingbu Station","sareaen":"Zhongli Dist.","aren":"No. 350, Sec. 2, Linghang S. Rd.","sno":"500304100","tot":"40","sbi":"7","mday":"20251125144202","lat":"25.00643","lng":"121.21642","bemp":"33","act":1,"sbi_detail":{"yb2":"7","eyb":"0"}},{"scity":"桃園市","scityen":"Taoyuan City","sna":"YouBike2.0_置地廣場 桃園","sarea":"中壢區","ar":"春德路132號對側","snaen":"YouBike2.0_Landmark Plaza Taoyuan","sareaen":"Zhongli Dist.","aren":"No. 132, Chunde Rd. (opposite)","sno":"500304101","tot":"32","sbi":"7","mday":"20251125151302","lat":"25.01696","lng":"121.21273","bemp":"25","act":1,"sbi_detail":{"yb2":"7","eyb":"0"}},{"scity":"桃園市","scityen":"Taoyuan City","sna":"YouBike2.0_領航南青溪路口","sarea":"中壢區","ar":"領航南路四段與青溪路二段口(東北側)","snaen":"YouBike2.0_Linghang S Rd. & Qingxi Rd. Intersection","sareaen":"Zhongli Dist.","aren":"Sec. 4, Linghang S Rd. & Sec. 2, Qingxi Rd. Intersection (Northeast)","sno":"500304102","tot":"32","sbi":"4","mday":"20251125152004","lat":"25.01785","lng":"121.22416","bemp":"28","act":1,"sbi_detail":{"yb2":"3","eyb":"1"}},{"scity":"桃園市","scityen":"Taoyuan City","sna":"YouBike2.0_櫻花緻","sarea":"中壢區","ar":"青溪路一段/青埔六街口東側人行道","snaen":"YouBike2.0_SAKURA ARCH","sareaen":"Zhongli Dist.","aren":"Sec. 1, Qingxi Rd.&Qingpu 6th St. Intersection (East)","sno":"500304103","tot":"32","sbi":"1","mday":"20251125112515","lat":"25.0051","lng":"121.2234","bemp":"31","act":1,"sbi_detail":{"yb2":"1","eyb":"0"}},{"scity":"桃園市","scityen":"Taoyuan City","sna":"YouBike2.0_青昇公園","sarea":"中壢區","ar":"領航南路四段與青昇路口","snaen":"YouBike2.0_Qingsheng Park","sareaen":"Zhongli Dist.","aren":"Sec. 4, Linghang S. Rd.&Qingsheng Rd. Intersection","sno":"500304104","tot":"32","sbi":"8","mday":"20251125113003","lat":"25.01471","lng":"121.22195","bemp":"24","act":1,"sbi_detail":{"yb2":"5","eyb":"3"}},{"scity":"桃園市","scityen":"Taoyuan City","sna":"YouBike2.0_中正公園(中美路)","sarea":"中壢區","ar":"中美路113號北側","snaen":"YouBike2.0_Zhongzheng Park(Zhongmei Rd.)","sareaen":"Zhongli Dist.","aren":"No. 113, Zhongmei Rd.(North)","sno":"500304105","tot":"63","sbi":"5","mday":"20251125153003","lat":"24.95909","lng":"121.22480","bemp":"57","act":1,"sbi_detail":{"yb2":"5","eyb":"0"}},{"scity":"桃園市","scityen":"Taoyuan City","sna":"YouBike2.0_萬坪公園","sarea":"中壢區","ar":"龍川九街18號南側","snaen":"YouBike2.0_Wanping Park","sareaen":"Zhongli Dist.","aren":"No. 18, Longchuan 9th St.(South)","sno":"500304106","tot":"36","sbi":"1","mday":"20251125113017","lat":"24.93284","lng":"121.24914","bemp":"35","act":1,"sbi_detail":{"yb2":"1","eyb":"0"}},{"scity":"桃園市","scityen":"Taoyuan City","sna":"YouBike2.0_青埔兒十公園","sarea":"中壢區","ar":"洽溪路361號東側","snaen":"YouBike2.0_Qingpu 10th Children's Park","sareaen":"Zhongli Dist.","aren":"No. 361, Qiaxi Rd.(East)","sno":"500304107","tot":"40","sbi":"7","mday":"20251125151503","lat":"25.01086","lng":"121.20911","bemp":"32","act":1,"sbi_detail":{"yb2":"5","eyb":"2"}},{"scity":"桃園市","scityen":"Taoyuan City","sna":"YouBike2.0_仁美公園","sarea":"中壢區","ar":"仁慈路70巷22號","snaen":"YouBike2.0_Renmei Park","sareaen":"Zhongli Dist.","aren":"No. 22, Ln. 70, Renci Rd.","sno":"500304108","tot":"20","sbi":"4","mday":"20251125144503","lat":"24.94427","lng":"121.25051","bemp":"16","act":1,"sbi_detail":{"yb2":"2","eyb":"2"}},{"scity":"桃園市","scityen":"Taoyuan City","sna":"YouBike2.0_中原文創園區(忠信路)","sarea":"中壢區","ar":"忠仁路33號","snaen":"YouBike2.0_Zhongyuan Creative Park(Zhongxin Rd.)","sareaen":"Zhongli Dist.","aren":"No. 33, Zhongren Rd.","sno":"500304109","tot":"20","sbi":"10","mday":"20251125092003","lat":"24.96367","lng":"121.2408","bemp":"10","act":1,"sbi_detail":{"yb2":"9","eyb":"1"}},{"scity":"桃園市","scityen":"Taoyuan City","sna":"YouBike2.0_新街溪河濱公園","sarea":"中壢區","ar":"溪洲街149號西側","snaen":"YouBike2.0_Xinjie River Park","sareaen":"Zhongli Dist.","aren":"No. 149, Xizhou St.(West)","sno":"500304110","tot":"35","sbi":"8","mday":"20251125122005","lat":"24.95928","lng":"121.22969","bemp":"26","act":1,"sbi_detail":{"yb2":"7","eyb":"1"}},{"scity":"桃園市","scityen":"Taoyuan City","sna":"YouBike2.0_中壢一號E棟","sarea":"中壢區","ar":"中山東路四段30號","snaen":"YouBike2.0_Zhongli 1st Social Housing(E)","sareaen":"Zhongli Dist.","aren":"No. 30, Sec. 4, Zhongshan E. Rd.","sno":"500304111","tot":"50","sbi":"0","mday":"20251125142019","lat":"24.93654","lng":"121.25468","bemp":"50","act":1,"sbi_detail":{"yb2":"0","eyb":"0"}},{"scity":"桃園市","scityen":"Taoyuan City","sna":"YouBike2.0_太子鎮社區","sarea":"中壢區","ar":"後寮一路166號","snaen":"YouBike2.0_Taizizhen Community","sareaen":"Zhongli Dist.","aren":"No. 166, Houliao 1st Rd.","sno":"500304112","tot":"25","sbi":"1","mday":"20251125142902","lat":"24.93940","lng":"121.24642","bemp":"24","act":1,"sbi_detail":{"yb2":"0","eyb":"1"}},{"scity":"桃園市","scityen":"Taoyuan City","sna":"YouBike2.0_清溪兒童公園","sarea":"中壢區","ar":"永泰路115號東側","snaen":"YouBike2.0_Qingxi Children's Park","sareaen":"Zhongli Dist.","aren":"No. 115, Yongtai Rd.(East)","sno":"500304113","tot":"36","sbi":"4","mday":"20251125143802","lat":"25.00985","lng":"121.2037","bemp":"31","act":1,"sbi_detail":{"yb2":"4","eyb":"0"}},{"scity":"桃園市","scityen":"Taoyuan City","sna":"YouBike2.0_中壢火車站(前站)美樂路","sarea":"中壢區","ar":"中和路209號西側","snaen":"YouBike2.0_TRA Zhongli Station (Front) Meile Rd.","sareaen":"Zhongli Dist.","aren":"No. 209, Zhonghe Rd.(West)","sno":"500304114","tot":"17","sbi":"6","mday":"20251125152802","lat":"24.95294","lng":"121.22408","bemp":"11","act":1,"sbi_detail":{"yb2":"5","eyb":"1"}},{"scity":"桃園市","scityen":"Taoyuan City","sna":"YouBike2.0_捷運高鐵桃園站(A18)2號出口","sarea":"中壢區","ar":"高鐵北路一段6號(對面捷運站2號出口東北方)","snaen":"YouBike2.0_MRT HSR Taoyuan Station (A18) Exit.2","sareaen":"Zhongli Dist.","aren":"No. 6, Gaotie N. Rd.(Exit. 2)","sno":"500304115","tot":"35","sbi":"9","mday":"20251125151603","lat":"25.01429","lng":"121.21436","bemp":"26","act":1,"sbi_detail":{"yb2":"7","eyb":"2"}},{"scity":"桃園市","scityen":"Taoyuan City","sna":"YouBike2.0_復興中山路口(中壢)","sarea":"中壢區","ar":"中山路138號","snaen":"YouBike2.0_Fuxing Zhongshan Rd. Intersection(Zhongli)","sareaen":"Zhongli Dist.","aren":"No. 138, Zhongshan Rd.","sno":"500304116","tot":"30","sbi":"4","mday":"20251125152802","lat":"24.95599","lng":"121.22462","bemp":"25","act":1,"sbi_detail":{"yb2":"3","eyb":"1"}},{"scity":"桃園市","scityen":"Taoyuan City","sna":"YouBike2.0_青峰青昇路口","sarea":"中壢區","ar":"青峰路一段/青昇路(南側)","snaen":"YouBike2.0_Qingfeng Qingsheng Rd. Intersection","sareaen":"Zhongli Dist.","aren":"Sec. 1, Qingfeng Rd. & Qingsheng Rd.(South)","sno":"500304117","tot":"56","sbi":"8","mday":"20251125152802","lat":"25.01549","lng":"121.21964","bemp":"48","act":1,"sbi_detail":{"yb2":"6","eyb":"2"}},{"scity":"桃園市","scityen":"Taoyuan City","sna":"YouBike2.0_普慶公園","sarea":"中壢區","ar":"普慶路19-1號","snaen":"YouBike2.0_Puqing Park","sareaen":"Zhongli Dist.","aren":"No. 19-1, Puqing Rd.","sno":"500304118","tot":"20","sbi":"6","mday":"20251125104003","lat":"24.94857","lng":"121.24633","bemp":"14","act":1,"sbi_detail":{"yb2":"5","eyb":"1"}},{"scity":"桃園市","scityen":"Taoyuan City","sna":"YouBike2.0_陸軍專校(龍東路)","sarea":"中壢區","ar":"龍東路750號","snaen":"YouBike2.0_Army Academy(Longdong Rd.)","sareaen":"Zhongli Dist.","aren":"No. 750, Longdong Rd.","sno":"500304119","tot":"20","sbi":"11","mday":"20251125093004","lat":"24.93857","lng":"121.25918","bemp":"9","act":1,"sbi_detail":{"yb2":"10","eyb":"1"}},{"scity":"桃園市","scityen":"Taoyuan City","sna":"YouBike2.0_月眉環保公園(中壢)","sarea":"中壢區","ar":"環保路603號北側","snaen":"YouBike2.0_Yuemei Park(Zhongli)","sareaen":"Zhongli Dist.","aren":"No. 603, Huanbao Rd.(North)","sno":"500304120","tot":"20","sbi":"8","mday":"20251125143902","lat":"25.01461","lng":"121.18988","bemp":"12","act":1,"sbi_detail":{"yb2":"6","eyb":"2"}},{"scity":"桃園市","scityen":"Taoyuan City","sna":"YouBike2.0_富台國小","sarea":"中壢區","ar":"中山東路三段389號西側","snaen":"YouBike2.0_Futai Elementary School","sareaen":"Zhongli Dist.","aren":"No. 389, Sec. 3, Zhongshan E. Rd.(West)","sno":"500304121","tot":"26","sbi":"7","mday":"20251125142102","lat":"24.93961","lng":"121.25233","bemp":"19","act":1,"sbi_detail":{"yb2":"6","eyb":"1"}},{"scity":"桃園市","scityen":"Taoyuan City","sna":"YouBike2.0_IKEA桃園店","sarea":"中壢區","ar":"青心路/高鐵北路一段(南側)","snaen":"YouBike2.0_IKEA Taoyuan","sareaen":"Zhongli Dist.","aren":"Qingxin Rd. & Sec. 1, Gaotie N. Rd.(South)","sno":"500304122","tot":"43","sbi":"8","mday":"20251125153003","lat":"25.01383","lng":"121.21747","bemp":"34","act":1,"sbi_detail":{"yb2":"8","eyb":"0"}},{"scity":"桃園市","scityen":"Taoyuan City","sna":"YouBike2.0_環西路二段300巷口","sarea":"中壢區","ar":"環西路二段306號前","snaen":"YouBike2.0_Ln. 300, Sec. 2, Huanxi Rd. Intersection","sareaen":"Zhongli Dist.","aren":"No. 306, Sec. 2, Huanxi Rd.","sno":"500304123","tot":"17","sbi":"5","mday":"20251125144004","lat":"24.96491","lng":"121.21353","bemp":"12","act":1,"sbi_detail":{"yb2":"3","eyb":"2"}},{"scity":"桃園市","scityen":"Taoyuan City","sna":"YouBike2.0_置地廣場桃園B區","sarea":"中壢區","ar":"大智路1號南側","snaen":"YouBike2.0_Landmark Plaza II Taoyuan","sareaen":"Zhongli Dist.","aren":"No. 1, Dazhi Rd.(South)","sno":"500304125","tot":"20","sbi":"0","mday":"20251125141718","lat":"25.01942","lng":"121.2153","bemp":"20","act":1,"sbi_detail":{"yb2":"0","eyb":"0"}},{"scity":"桃園市","scityen":"Taoyuan City","sna":"YouBike2.0_西園南園二路口","sarea":"中壢區","ar":"西園路6號南側","snaen":"YouBike2.0_Xiyuan & Nanyuan 2nd Rd. Intersection","sareaen":"Zhongli Dist.","aren":"No. 6, Xiyuan Rd.(South)","sno":"500304126","tot":"21","sbi":"1","mday":"20251125150003","lat":"24.97174","lng":"121.23433","bemp":"20","act":1,"sbi_detail":{"yb2":"1","eyb":"0"}},{"scity":"桃園市","scityen":"Taoyuan City","sna":"YouBike2.0_中華路二段延平路口","sarea":"中壢區","ar":"中華路二段延平路口","snaen":"YouBike2.0_Sec. 2, Zhonghua Rd. & Yanping Rd. Intersection","sareaen":"Zhongli Dist.","aren":"Sec. 2, Zhonghua Rd. & Yanping Rd. Intersection","sno":"500304127","tot":"46","sbi":"16","mday":"20251125150602","lat":"24.96323","lng":"121.23326","bemp":"30","act":1,"sbi_detail":{"yb2":"13","eyb":"3"}},{"scity":"桃園市","scityen":"Taoyuan City","sna":"YouBike2.0_仁和親子公園","sarea":"中壢區","ar":"晉元路301巷46號","snaen":"YouBike2.0_Renhe Park","sareaen":"Zhongli Dist.","aren":"No. 46, Ln. 301, Jinyuan Rd.","sno":"500304128","tot":"18","sbi":"10","mday":"20251125113003","lat":"24.95242","lng":"121.26421","bemp":"8","act":1,"sbi_detail":{"yb2":"10","eyb":"0"}},{"scity":"桃園市","scityen":"Taoyuan City","sna":"YouBike2.0_捷運興南站(A20)","sarea":"中壢區","ar":"興北二路中豐北路一段","snaen":"YouBike2.0_MRT Xingnan Station (A20)","sareaen":"Zhongli Dist.","aren":"Xingbei 2nd Rd. & Sec. 1, Zhongfeng N. Rd.","sno":"500304129","tot":"40","sbi":"14","mday":"20251125152802","lat":"24.98065","lng":"121.21581","bemp":"26","act":1,"sbi_detail":{"yb2":"9","eyb":"5"}},{"scity":"桃園市","scityen":"Taoyuan City","sna":"YouBike2.0_桃園會展中心","sarea":"中壢區","ar":"領航北路一段99號","snaen":"YouBike2.0_Messe Taoyuan","sareaen":"Zhongli Dist.","aren":"No. 99, Sec. 1, Linghang N. Rd.","sno":"500304130","tot":"26","sbi":"4","mday":"20251124212215","lat":"25.00397","lng":"121.20105","bemp":"22","act":1,"sbi_detail":{"yb2":"4","eyb":"0"}},{"scity":"桃園市","scityen":"Taoyuan City","sna":"YouBike2.0_聖德基督學院","sarea":"中壢區","ar":"新生路二段興北三路口","snaen":"YouBike2.0_Sheng-te Christian College","sareaen":"Zhongli Dist.","aren":"Sec. 2, Xinsheng Rd. & Xingbei 3rd Rd. Intersection","sno":"500304131","tot":"30","sbi":"6","mday":"20251125143303","lat":"24.98501","lng":"121.22231","bemp":"24","act":1,"sbi_detail":{"yb2":"4","eyb":"2"}},{"scity":"桃園市","scityen":"Taoyuan City","sna":"YouBike2.0_環中東榮安一街口","sarea":"中壢區","ar":"環中東路202號","snaen":"YouBike2.0_Huanzhong E. Rd. & Rong'an 1st St. Intersection","sareaen":"Zhongli Dist.","aren":"No. 202, Huanzhong E. Rd.","sno":"500304132","tot":"36","sbi":"4","mday":"20251125150301","lat":"24.96345","lng":"121.25675","bemp":"32","act":1,"sbi_detail":{"yb2":"2","eyb":"2"}},{"scity":"桃園市","scityen":"Taoyuan City","sna":"YouBike2.0_中央西路一段大同路口","sarea":"中壢區","ar":"中央西路一段大同路口","snaen":"YouBike2.0_Sec. 1, Zhongyang W. Rd. & Datong Rd. Intersection","sareaen":"Zhongli Dist.","aren":"Sec. 1, Zhongyang W. Rd. & Datong Rd. Intersection","sno":"500304133","tot":"24","sbi":"4","mday":"20251125152004","lat":"24.95769","lng":"121.22267","bemp":"19","act":1,"sbi_detail":{"yb2":"3","eyb":"1"}},{"scity":"桃園市","scityen":"Taoyuan City","sna":"YouBike2.0_龍慈路龍岡路三段281巷口","sarea":"中壢區","ar":"龍慈路810號前人行道","snaen":"YouBike2.0_Longci & Ln. 281, Sec. 3, Longgang Rd. Intersection","sareaen":"Zhongli Dist.","aren":"No. 810, Longci Rd.","sno":"500304134","tot":"22","sbi":"9","mday":"20251125085004","lat":"24.934961","lng":"121.238412","bemp":"13","act":1,"sbi_detail":{"yb2":"8","eyb":"1"}},{"scity":"桃園市","scityen":"Taoyuan City","sna":"YouBike2.0_中壢分局仁愛派出所","sarea":"中壢區","ar":"華美一路101號","snaen":"YouBike2.0_TYPD Zhongli Branch Ren'ai Police Substation","sareaen":"Zhongli Dist.","aren":"No. 101, Huamei 1st Rd.","sno":"500304135","tot":"32","sbi":"1","mday":"20251125152717","lat":"24.95367","lng":"121.26129","bemp":"31","act":1,"sbi_detail":{"yb2":"0","eyb":"1"}},{"scity":"桃園市","scityen":"Taoyuan City","sna":"YouBike2.0_中壢火車站(前站)中和路二","sarea":"中壢區","ar":"中和路101號","snaen":"YouBike2.0_TRA Zhongli Station (Front) Zhonghe Rd.(2)","sareaen":"Zhongli Dist.","aren":"No. 101, Zhonghe Rd.","sno":"500304136","tot":"70","sbi":"17","mday":"20251125152802","lat":"24.95402","lng":"121.22627","bemp":"52","act":1,"sbi_detail":{"yb2":"8","eyb":"9"}},{"scity":"桃園市","scityen":"Taoyuan City","sna":"YouBike2.0_中壢運動公園1號停車場","sarea":"中壢區","ar":"環中東路二段吉長二街口","snaen":"YouBike2.0_Zhongli Sport Park(No. 1 Parking Lot)","sareaen":"Zhongli Dist.","aren":"Sec. 2, Huanzhong E. Rd. & Jichang 2nd St. Intersection","sno":"500304137","tot":"59","sbi":"4","mday":"20251125152302","lat":"24.94613","lng":"121.23216","bemp":"55","act":1,"sbi_detail":{"yb2":"3","eyb":"1"}},{"scity":"桃園市","scityen":"Taoyuan City","sna":"YouBike2.0_普忠環中東路口","sarea":"中壢區","ar":"環中東路561號","snaen":"YouBike2.0_Puzhong & Huanzhong E. Rd. Intersection","sareaen":"Zhongli Dist.","aren":"No. 561, Huanzhong E. Rd.","sno":"500304138","tot":"30","sbi":"6","mday":"20251125112002","lat":"24.95757","lng":"121.24942","bemp":"23","act":1,"sbi_detail":{"yb2":"2","eyb":"4"}},{"scity":"桃園市","scityen":"Taoyuan City","sna":"YouBike2.0_松江北路定寧路口","sarea":"中壢區","ar":"松江北路定寧路口","snaen":"YouBike2.0_Songjiang N. Rd. & Dingning Rd. Intersection","sareaen":"Zhongli Dist.","aren":"Songjiang N. Rd. & Dingning Rd. Intersection","sno":"500304139","tot":"21","sbi":"10","mday":"20251124062302","lat":"24.99379","lng":"121.24880","bemp":"11","act":1,"sbi_detail":{"yb2":"10","eyb":"0"}},{"scity":"桃園市","scityen":"Taoyuan City","sna":"YouBike2.0_桃園市立圖書館平鎮分館","sarea":"平鎮區","ar":"環南路三段88號右前方人行道","snaen":"YouBike2.0_Taoyuan Public Library Pingzhen Branch","sareaen":"Pingzhen Dist.","aren":"No.88, Sec. 3, Huannan Rd.","sno":"500305001","tot":"56","sbi":"27","mday":"20251125152302","lat":"24.940031","lng":"121.218322","bemp":"26","act":1,"sbi_detail":{"yb2":"10","eyb":"17"}},{"scity":"桃園市","scityen":"Taoyuan City","sna":"YouBike2.0_新勢公園","sarea":"平鎮區","ar":"延平路一段181號對面新勢公園旁人行道","snaen":"YouBike2.0_Xinshi Park","sareaen":"Pingzhen Dist.","aren":"No.181, Sec. 1, Yanping Rd.(opposite)","sno":"500305002","tot":"48","sbi":"12","mday":"20251125115004","lat":"24.95069","lng":"121.21669","bemp":"34","act":1,"sbi_detail":{"yb2":"12","eyb":"0"}},{"scity":"桃園市","scityen":"Taoyuan City","sna":"YouBike2.0_復興廣德街口","sarea":"平鎮區","ar":"復興街廣德街口西南側人行道","snaen":"YouBike2.0_Fuxing & Guangde St. Intersection","sareaen":"Pingzhen Dist.","aren":"Fuxing St./Guangde St.","sno":"500305003","tot":"36","sbi":"11","mday":"20251125153003","lat":"24.95438","lng":"121.20504","bemp":"25","act":1,"sbi_detail":{"yb2":"10","eyb":"1"}},{"scity":"桃園市","scityen":"Taoyuan City","sna":"YouBike2.0_宋屋公園","sarea":"平鎮區","ar":"廣泰路152號對面公園旁人行道","snaen":"YouBike2.0_Songwu Park","sareaen":"Pingzhen Dist.","aren":"No.152, Guangtai Rd.(opposite)","sno":"500305004","tot":"34","sbi":"7","mday":"20251125152004","lat":"24.94528","lng":"121.20419","bemp":"27","act":1,"sbi_detail":{"yb2":"3","eyb":"4"}},{"scity":"桃園市","scityen":"Taoyuan City","sna":"YouBike2.0_廣仁公園","sarea":"平鎮區","ar":"廣南路168號對面公園旁人行道","snaen":"YouBike2.0_Guangren Park","sareaen":"Pingzhen Dist.","aren":"No.168, Guangnan Rd.(opposite)","sno":"500305005","tot":"36","sbi":"6","mday":"20251125111202","lat":"24.93948","lng":"121.20641","bemp":"30","act":1,"sbi_detail":{"yb2":"0","eyb":"6"}},{"scity":"桃園市","scityen":"Taoyuan City","sna":"YouBike2.0_新寶公園","sarea":"平鎮區","ar":"新富五街41號(左側公園綠帶)","snaen":"YouBike2.0_Xinpao Park","sareaen":"Pingzhen Dist.","aren":"No.41, Xinfu 5th St.","sno":"500305006","tot":"34","sbi":"4","mday":"20251125152602","lat":"24.93956","lng":"121.21407","bemp":"30","act":1,"sbi_detail":{"yb2":"2","eyb":"2"}},{"scity":"桃園市","scityen":"Taoyuan City","sna":"YouBike2.0_平鎮區婦幼館","sarea":"平鎮區","ar":"廣成街10號對面路側","snaen":"YouBike2.0_Pingzhen Maternity and Child Center","sareaen":"Pingzhen Dist.","aren":"No.10, Guangcheng St.(opposite)","sno":"500305007","tot":"38","sbi":"3","mday":"20251125145002","lat":"24.95627","lng":"121.20855","bemp":"33","act":1,"sbi_detail":{"yb2":"2","eyb":"1"}},{"scity":"桃園市","scityen":"Taoyuan City","sna":"YouBike2.0_新榮公園","sarea":"平鎮區","ar":"振興西路新德街口西北側公園旁人行道","snaen":"YouBike2.0_Xinrong Park","sareaen":"Pingzhen Dist.","aren":"Zhenxing W. Rd./Xinde St.","sno":"500305008","tot":"40","sbi":"6","mday":"20251125151302","lat":"24.94599","lng":"121.21498","bemp":"34","act":1,"sbi_detail":{"yb2":"2","eyb":"4"}},{"scity":"桃園市","scityen":"Taoyuan City","sna":"YouBike2.0_東安國中","sarea":"平鎮區","ar":"平東路168號(面東安國中右側人行道)","snaen":"YouBike2.0_Dong An Junior High School","sareaen":"Pingzhen Dist.","aren":"No.168, Pingdong Rd.","sno":"500305009","tot":"44","sbi":"3","mday":"20251125151503","lat":"24.91650","lng":"121.24976","bemp":"41","act":1,"sbi_detail":{"yb2":"2","eyb":"1"}},{"scity":"桃園市","scityen":"Taoyuan City","sna":"YouBike2.0_平鎮和平公園","sarea":"平鎮區","ar":"莒光路39號對面路側","snaen":"YouBike2.0_Pingzhen Heping Park","sareaen":"Pingzhen Dist.","aren":"No.39, Juguang Rd.(opposite)","sno":"500305010","tot":"32","sbi":"5","mday":"20251125152302","lat":"24.94753","lng":"121.22114","bemp":"27","act":1,"sbi_detail":{"yb2":"4","eyb":"1"}},{"scity":"桃園市","scityen":"Taoyuan City","sna":"YouBike2.0_莊敬里民集會所","sarea":"平鎮區","ar":"自強街莊福路口東北側人行道","snaen":"YouBike2.0_Zhuangjing Civil Activity Center","sareaen":"Pingzhen Dist.","aren":"Ziqiang St.,/Zhuangfu Rd.","sno":"500305011","tot":"22","sbi":"8","mday":"20251125151802","lat":"24.90408","lng":"121.21482","bemp":"14","act":1,"sbi_detail":{"yb2":"3","eyb":"5"}},{"scity":"桃園市","scityen":"Taoyuan City","sna":"YouBike2.0_中豐坤慶路口","sarea":"平鎮區","ar":"坤慶路1號前方人行道","snaen":"YouBike2.0_Zhongfeng & Kunqing Rd. Intersection","sareaen":"Pingzhen Dist.","aren":"No.1, Kunqing Rd.","sno":"500305012","tot":"30","sbi":"14","mday":"20251125145002","lat":"24.90262","lng":"121.211817","bemp":"16","act":1,"sbi_detail":{"yb2":"11","eyb":"3"}},{"scity":"桃園市","scityen":"Taoyuan City","sna":"YouBike2.0_廣南停車場","sarea":"平鎮區","ar":"環南路二段11號旁人行道","snaen":"YouBike2.0_Guangnan Parking Lot","sareaen":"Pingzhen Dist.","aren":"No.11, Sec. 2, Huannan Rd.","sno":"500305013","tot":"41","sbi":"13","mday":"20251125152302","lat":"24.94491","lng":"121.20863","bemp":"28","act":1,"sbi_detail":{"yb2":"9","eyb":"4"}},{"scity":"桃園市","scityen":"Taoyuan City","sna":"YouBike2.0_獅子林社區活動中心","sarea":"平鎮區","ar":"大智街88號對面","snaen":"YouBike2.0_Shizilin Community Activity Center","sareaen":"Pingzhen Dist.","aren":"No.88, Dazhi St.(opposite)","sno":"500305014","tot":"34","sbi":"15","mday":"20251125113003","lat":"24.92834","lng":"121.22529","bemp":"19","act":1,"sbi_detail":{"yb2":"11","eyb":"4"}},{"scity":"桃園市","scityen":"Taoyuan City","sna":"YouBike2.0_民俗文化公園","sarea":"平鎮區","ar":"上海路115號東北側","snaen":"YouBike2.0_Folk Cultural Park","sareaen":"Pingzhen Dist.","aren":"No. 115, Shanghai Rd.(Northeast)","sno":"500305015","tot":"18","sbi":"2","mday":"20251125141004","lat":"24.91191","lng":"121.20635","bemp":"16","act":1,"sbi_detail":{"yb2":"2","eyb":"0"}},{"scity":"桃園市","scityen":"Taoyuan City","sna":"YouBike2.0_上海南京路口","sarea":"平鎮區","ar":"上海路227號旁人行道","snaen":"YouBike2.0_Shanghai & Nanjing Rd. Intersection","sareaen":"Pingzhen Dist.","aren":"No.227, Shanghai Rd.(opposite)","sno":"500305016","tot":"38","sbi":"7","mday":"20251125142701","lat":"24.91582","lng":"121.20613","bemp":"29","act":1,"sbi_detail":{"yb2":"6","eyb":"1"}},{"scity":"桃園市","scityen":"Taoyuan City","sna":"YouBike2.0_忠愛公園","sarea":"平鎮區","ar":"金陵路二段454巷18號旁公園","snaen":"YouBike2.0_Zhong'ai Park","sareaen":"Pingzhen Dist.","aren":"No.18, Ln. 454, Sec. 2, Jinling Rd.","sno":"500305017","tot":"34","sbi":"1","mday":"20251125143602","lat":"24.93306","lng":"121.22493","bemp":"33","act":1,"sbi_detail":{"yb2":"0","eyb":"1"}},{"scity":"桃園市","scityen":"Taoyuan City","sna":"YouBike2.0_平鎮魚形公園","sarea":"平鎮區","ar":"清泉街49-53號旁公園內","snaen":"YouBike2.0_Pingzhen Yusing Park","sareaen":"Pingzhen Dist.","aren":"No.49-53, Qingquan St.","sno":"500305018","tot":"20","sbi":"3","mday":"20251125135303","lat":"24.95796","lng":"121.19022","bemp":"17","act":1,"sbi_detail":{"yb2":"3","eyb":"0"}},{"scity":"桃園市","scityen":"Taoyuan City","sna":"YouBike2.0_山仔頂公園","sarea":"平鎮區","ar":"自由街57號對面公園","snaen":"YouBike2.0_Shanzaiding Park","sareaen":"Pingzhen Dist.","aren":"No.57, Ziyou St.. (opposite)","sno":"500305019","tot":"36","sbi":"13","mday":"20251125131002","lat":"24.89218","lng":"121.20433","bemp":"22","act":1,"sbi_detail":{"yb2":"9","eyb":"4"}},{"scity":"桃園市","scityen":"Taoyuan City","sna":"YouBike2.0_義興公園","sarea":"平鎮區","ar":"義興街55號對面公園人行道","snaen":"YouBike2.0_Yixing Park","sareaen":"Pingzhen Dist.","aren":"No.55, Yixing St.(opposite)","sno":"500305020","tot":"32","sbi":"16","mday":"20251125150003","lat":"24.949106","lng":"121.209494","bemp":"16","act":1,"sbi_detail":{"yb2":"7","eyb":"9"}},{"scity":"桃園市","scityen":"Taoyuan City","sna":"YouBike2.0_平鎮市廿公園","sarea":"平鎮區","ar":"德育路二段104號對向人行道上","snaen":"YouBike2.0_Pingzhen No.20 Park","sareaen":"Pingzhen Dist.","aren":"No.104, Sec. 2, Deyu Rd.(opposite)","sno":"500305021","tot":"40","sbi":"31","mday":"20251125152802","lat":"24.94280","lng":"121.21896","bemp":"6","act":1,"sbi_detail":{"yb2":"15","eyb":"16"}},{"scity":"桃園市","scityen":"Taoyuan City","sna":"YouBike2.0_平鎮國民運動中心","sarea":"平鎮區","ar":"興安路20號對面空地","snaen":"YouBike2.0_Pingzhen Civil Sports Center","sareaen":"Pingzhen Dist.","aren":"No.20, Xing'an Rd.(opposite)","sno":"500305022","tot":"50","sbi":"7","mday":"20251125152602","lat":"24.91396","lng":"121.20970","bemp":"43","act":1,"sbi_detail":{"yb2":"7","eyb":"0"}},{"scity":"桃園市","scityen":"Taoyuan City","sna":"YouBike2.0_桃園市立圖書館東勢分館","sarea":"平鎮區","ar":"金陵路五段55號前方空地","snaen":"YouBike2.0_Taoyuan City Library Dongshi Branch","sareaen":"Pingzhen Dist.","aren":"No.55, Sec. 5, Jinling Rd.","sno":"500305023","tot":"15","sbi":"5","mday":"20251125144602","lat":"24.9105","lng":"121.231206","bemp":"10","act":1,"sbi_detail":{"yb2":"1","eyb":"4"}},{"scity":"桃園市","scityen":"Taoyuan City","sna":"YouBike2.0_平鎮平興國中","sarea":"平鎮區","ar":"環南路與育達路二段路口","snaen":"YouBike2.0_Pingzhen Ping Hsing Junior High School","sareaen":"Pingzhen Dist.","aren":"Huannan Rd. & Sec. 2, Yuda Rd. Intersection.","sno":"500305024","tot":"44","sbi":"28","mday":"20251125134818","lat":"24.95094","lng":"121.20644","bemp":"15","act":1,"sbi_detail":{"yb2":"26","eyb":"2"}},{"scity":"桃園市","scityen":"Taoyuan City","sna":"YouBike2.0_平鎮棒球場","sarea":"平鎮區","ar":"德育路217號(對面)","snaen":"YouBike2.0_Baseball Field of Pingzhen Dist.","sareaen":"Pingzhen Dist.","aren":"No.217, Deyu Rd.","sno":"500305025","tot":"34","sbi":"22","mday":"20251125151802","lat":"24.947740","lng":"121.219405","bemp":"11","act":1,"sbi_detail":{"yb2":"18","eyb":"4"}},{"scity":"桃園市","scityen":"Taoyuan City","sna":"YouBike2.0_環南金陵路口","sarea":"平鎮區","ar":"環南路三段243號前方人行道","snaen":"YouBike2.0_Huannan Rd. & Jinling Rd. Intersection","sareaen":"Pingzhen Dist.","aren":"No.243, Sec. 3, Huannan Rd.","sno":"500305026","tot":"25","sbi":"9","mday":"20251125144303","lat":"24.94073","lng":"121.22288","bemp":"16","act":1,"sbi_detail":{"yb2":"7","eyb":"2"}},{"scity":"桃園市","scityen":"Taoyuan City","sna":"YouBike2.0_臺北商業大學桃園校區","sarea":"平鎮區","ar":"福龍路一段100號前方綠地","snaen":"YouBike2.0_Taoyuan Campus of NTUB","sareaen":"Pingzhen Dist.","aren":"No.100, Sec. 1, Fulong Rd.","sno":"500305027","tot":"20","sbi":"8","mday":"20251125150301","lat":"24.90275","lng":"121.23063","bemp":"12","act":1,"sbi_detail":{"yb2":"6","eyb":"2"}},{"scity":"桃園市","scityen":"Taoyuan City","sna":"YouBike2.0_雲南文化公園","sarea":"平鎮區","ar":"龍平路251號西南側","snaen":"YouBike2.0_Yunnan Culture Park","sareaen":"Pingzhen Dist.","aren":"No. 251, Longping Rd. (Southwest)","sno":"500305028","tot":"32","sbi":"2","mday":"20251125132003","lat":"24.928798","lng":"121.254634","bemp":"29","act":1,"sbi_detail":{"yb2":"2","eyb":"0"}},{"scity":"桃園市","scityen":"Taoyuan City","sna":"YouBike2.0_龍慈游泳路口","sarea":"平鎮區","ar":"龍慈路/游泳路口東側","snaen":"YouBike2.0_Longci Rd. & Youyong Rd. Intersection","sareaen":"Pingzhen Dist.","aren":"Longci Rd. & Youyong Rd. Intersection (East)","sno":"500305029","tot":"15","sbi":"2","mday":"20251125151402","lat":"24.92824","lng":"121.23511","bemp":"13","act":1,"sbi_detail":{"yb2":"0","eyb":"2"}},{"scity":"桃園市","scityen":"Taoyuan City","sna":"YouBike2.0_新富橋","sarea":"平鎮區","ar":"新光路二段87巷口(新富橋西北側)","snaen":"YouBike2.0_Xinfu Bridge","sareaen":"Pingzhen Dist.","aren":"Ln. 87, Sec. 2, Xinguang Rd. intersection (Xinfu Bridge Northwest)","sno":"500305030","tot":"32","sbi":"8","mday":"20251125151802","lat":"24.9319","lng":"121.2074","bemp":"24","act":1,"sbi_detail":{"yb2":"6","eyb":"2"}},{"scity":"桃園市","scityen":"Taoyuan City","sna":"YouBike2.0_安平鎮綠映公園","sarea":"平鎮區","ar":"平鎮區鎮興段1416、1419地號","snaen":"YouBike2.0_Anpingzhen Green Park","sareaen":"Pingzhen Dist.","aren":"No.1419, No.1416 of Zhenxing Section, Pingzhen Dist.","sno":"500305031","tot":"15","sbi":"5","mday":"20251124165003","lat":"24.90599","lng":"121.19045","bemp":"10","act":1,"sbi_detail":{"yb2":"2","eyb":"3"}},{"scity":"桃園市","scityen":"Taoyuan City","sna":"YouBike2.0_平鎮第一市民活動中心","sarea":"平鎮區","ar":"貿五路26號對側","snaen":"YouBike2.0_Pingzhen First Civil Activity Center","sareaen":"Pingzhen Dist.","aren":"No. 26, Mao 5th Rd. (opposite)","sno":"500305032","tot":"32","sbi":"0","mday":"20251125123217","lat":"24.92763","lng":"121.25293","bemp":"32","act":1,"sbi_detail":{"yb2":"0","eyb":"0"}},{"scity":"桃園市","scityen":"Taoyuan City","sna":"YouBike2.0_新富一三街口","sarea":"平鎮區","ar":"新富三街53號","snaen":"YouBike2.0_Xinfu 1st & 3rd St. Intersection","sareaen":"Pingzhen Dist.","aren":"No. 53, Xinfu 3rd St.","sno":"500305033","tot":"30","sbi":"2","mday":"20251125144004","lat":"24.94259","lng":"121.21471","bemp":"28","act":1,"sbi_detail":{"yb2":"1","eyb":"1"}},{"scity":"桃園市","scityen":"Taoyuan City","sna":"YouBike2.0_平鎮一號社會住宅","sarea":"平鎮區","ar":"漢口街82巷/大興街66巷18弄","snaen":"YouBike2.0_Pingzhen 1st Social Housing","sareaen":"Pingzhen Dist.","aren":"Ln. 82, Hankou St. & Aly. 18, Ln. 66, Daxing St.","sno":"500305034","tot":"16","sbi":"2","mday":"20251125144503","lat":"24.91077","lng":"121.20797","bemp":"14","act":1,"sbi_detail":{"yb2":"2","eyb":"0"}},{"scity":"桃園市","scityen":"Taoyuan City","sna":"YouBike2.0_平鎮幼兒園平鎮分班","sarea":"平鎮區","ar":"新光路三段186號","snaen":"YouBike2.0_Pingzhen Preschool(Pingzhen Class)","sareaen":"Pingzhen Dist.","aren":"No. 186, Sec. 3, Xinguang Rd.","sno":"500305035","tot":"20","sbi":"4","mday":"20251125144303","lat":"24.924","lng":"121.20604","bemp":"16","act":1,"sbi_detail":{"yb2":"2","eyb":"2"}},{"scity":"桃園市","scityen":"Taoyuan City","sna":"YouBike2.0_義民社福館","sarea":"平鎮區","ar":"復旦路二段115號","snaen":"YouBike2.0_Yimin Social Welfare Center","sareaen":"Pingzhen Dist.","aren":"No. 115, Sec. 2, Fudan Rd.","sno":"500305036","tot":"73","sbi":"32","mday":"20251125152602","lat":"24.94871","lng":"121.20393","bemp":"40","act":1,"sbi_detail":{"yb2":"16","eyb":"16"}},{"scity":"桃園市","scityen":"Taoyuan City","sna":"YouBike2.0_民族文化街口","sarea":"平鎮區","ar":"民族路二段221號","snaen":"YouBike2.0_Minzu Wenhua St. Intersection","sareaen":"Pingzhen Dist.","aren":"No. 221, Sec. 2, Minzu Rd.","sno":"500305037","tot":"30","sbi":"0","mday":"20251114152451","lat":"24.95701","lng":"121.20262","bemp":"0","act":"0","sbi_detail":{"yb2":"0","eyb":"0"}},{"scity":"桃園市","scityen":"Taoyuan City","sna":"YouBike2.0_平鎮區中正市民活動中心","sarea":"平鎮區","ar":"中正一路2號","snaen":"YouBike2.0_Pingzhen Zhongzheng Civil Activity Center","sareaen":"Pingzhen Dist.","aren":"No. 2, Zhongzheng 1st Rd.","sno":"500305038","tot":"25","sbi":"7","mday":"20251125144004","lat":"24.92603","lng":"121.25580","bemp":"18","act":1,"sbi_detail":{"yb2":"6","eyb":"1"}},{"scity":"桃園市","scityen":"Taoyuan City","sna":"YouBike2.0_平鎮運動公園","sarea":"平鎮區","ar":"高幼路223-1號西側","snaen":"YouBike2.0_Pingzhen Sports Park","sareaen":"Pingzhen Dist.","aren":"No. 223-1, Gaoyou Rd.(West)","sno":"500305039","tot":"22","sbi":"4","mday":"20251123191003","lat":"24.93716","lng":"121.18847","bemp":"18","act":1,"sbi_detail":{"yb2":"4","eyb":"0"}},